the_geom,cost_estimate,the_geom_webmercator,latitude,longitude,borough,job_type,permit_type,job_number,bin_number,job_type2,cartodb_id,enlargement_flag_yes_no,square_footage,permit_issuance_date,permit_expiration_date,job_location_house_number,job_location_street_name,community_board,applicant_business_name,proposed_occupancy_class,proposed_stories,proposed_dwelling_units
0101000020E6100000000000C0927452C0000000A05C4D4440,184112,0101000020110F0000AF2C89BF29595FC16FD1DDC70CE65241,40.6043891906738,-73.8214569091797,Queens,NB,New Building,420659415,4296987,NB,1135,false,1244,2/14/2018,1/23/2019 12:00,32,WEST 12TH ROAD,414,D HANDY INC,RESIDENTIAL: 1 & 2 FAMILY HOUSES,3,1
0101000020E610000000000000FD7F52C000000080F54F4440,1228548,0101000020110F00002B25DF7B8D6C5FC10D4256A7F4E85241,40.6246795654297,-73.9998168945312,Brooklyn,NB,New Building,321249911,3142294,NB,1573,false,8301,3/22/2018,3/20/2019 12:00,1374,65TH STREET,310,AMERICAN PRO BUILDERS*,MERCANTILE,3,
0101000020E610000000000000477F52C000000080A2504440,225300,0101000020110F000021D2AB56586B5FC15C17F43EB6E95241,40.6299591064453,-73.9887084960938,Brooklyn,A1,ALT 1 Enlargement,321096602,3129861,A1,1707,true,3595,8/14/2018,9/9/2018 12:00,1536,52 ST,312,PARAMOUNT FRAMERS INC,ASSEMBLY: OTHER,3,1
0101000020E6100000000000C07E8552C0000000E03E514440,1000000,0101000020110F00007F4A0B16E8755FC13F35593F65EA5241,40.6347312927246,-74.0858612060547,Staten Island,A1,ALT 1 Enlargement,520290694,5150536,A1,1837,true,25800,7/3/2018,7/3/2019 12:00,307,VICTORY BLVD,501,RENOVATE INC,EDUCATIONAL,3,0
0101000020E610000000000000868052C0000000E064514440,298000,0101000020110F000045623131766D5FC1292894C68FEA5241,40.6358909606934,-74.0081787109375,Brooklyn,A1,ALT 1 Enlargement,320689545,3140557,A1,1891,true,6227,7/18/2018,7/27/2019 12:00,821,59 STREET,312,D Z IMAGE INC,BUSINESS,6,
0101000020E6100000000000606C7552C0000000006E554440,53280,0101000020110F0000C25BF9679B5A5FC17A9EA64B14EF5241,40.6674194335938,-73.8347396850586,Queens,NB,New Building,421520802,4617381,NB,2664,false,360,10/24/2017,10/2/2018 12:00,150-60,COHANCY STREET,410,ALL TIME CONSTRUCTION INC,UTILITY / MISCELLANEOUS,1,
0101000020E6100000000000E0387A52C00000008086564440,658156,0101000020110F000048CC1323C2625FC1591271644EF05241,40.6759796142578,-73.9097213745117,Brooklyn,NB,New Building,301980328,3038609,NB,2948,false,4447,10/25/2017,10/25/2018 12:00,2284,ATLANTIC AVENUE,316,PAWAR BUILDERS LLC,RESIDENTIAL 1-2 FAMILY HOUSES,4,2
0101000020E610000000000040B47B52C0000000A0A4564440,1286120,0101000020110F00001F9E2B8B46655FC10952C22070F05241,40.6768989562988,-73.9328765869141,Brooklyn,NB,New Building,321305592,3826326,NB,2978,false,8690,6/11/2018,4/16/2019 12:00,71,SCHENECTADY AVENUE,308,GREENSIDE CORP,BUSINESS,1,
0101000020E6100000000000C0D47552C0000000A008574440,570657,0101000020110F0000C13595B24C5B5FC155EAE21DE0F05241,40.6799507141113,-73.8411102294922,Queens,A1,ALT 1 Enlargement,421200266,4191192,A1,3093,true,7551,1/31/2018,1/31/2019 12:00,9708,ROCKAWAY BOULEVARD,410,NADKOS INC,BUSINESS,2,
0101000020E6100000000000E0697D52C00000002071574440,1170532,0101000020110F0000ADC6CBE42D685FC151E3862655F15241,40.6831398010254,-73.959587097168,Brooklyn,NB,New Building,320623820,3418380,NB,3230,false,7909,3/9/2018,9/1/2018 12:00,65,IRVING PLACE,302,TCS CONSTRUCTION CORP,RESIDENTIAL: APARTMENT HOUSES,4,6
0101000020E6100000000000E0557A52C000000000D9574440,1086764,0101000020110F0000ED077D65F3625FC12DD0657DC9F15241,40.6863098144531,-73.911491394043,Brooklyn,NB,New Building,320624552,3079223,NB,3351,false,7343,3/22/2018,3/5/2019 12:00,61,SCHAEFER STREET,304,NY DRILLING INC,RESIDENTIAL: APARTMENT HOUSES,4,8
0101000020E6100000000000E0127D52C0000000C081584440,3119396,0101000020110F0000BA13901D9A675FC1EDA1248086F25241,40.6914596557617,-73.9542770385742,Brooklyn,NB,New Building,321554545,3827328,NB,3610,false,21077,7/9/2018,7/9/2019 12:00,223,SPENCER STREET,303,KEY DEVELOPERS INC,BUSINESS,6,
0101000020E610000000000060DE7E52C0000000A0AD584440,26614,0101000020110F0000B8185A9FA66A5FC16E374FA5B7F25241,40.692798614502,-73.9823226928711,Brooklyn,A1,ALT 1 Enlargement,320775522,3058261,A1,3663,true,26347,3/30/2018,12/30/2018 12:00,147,PRINCE STREET,302,LNM CONSTRUCTION LLC,BUSINESS,4,
0101000020E6100000000000408A7F52C000000020D0584440,1918000,0101000020110F0000A093C791CA6B5FC17BB45E4ADEF25241,40.6938514709473,-73.9928131103516,Brooklyn,A1,ALT 1 Enlargement,321196745,3329458,A1,3700,true,1584,11/22/2017,11/16/2018 12:00,100,CLINTON STREET,302,EUROSTRUCT INC,EDUCATIONAL,3,
0101000020E6100000000000C0287452C000000040FD594440,836580,0101000020110F000084264FB275585FC1988E389E2FF45241,40.7030410766602,-73.8149871826172,Queens,A1,ALT 1 Enlargement,421381016,4206302,A1,3992,true,1214,3/23/2018,11/22/2018 12:00,140-40,QUEENS BLVD,412,HILLCREST CONCRETE CORP,BUSINESS,2,
0101000020E6100000000000A0DE7B52C0000000E0355A4440,5394000,0101000020110F00003F0A97858E655FC1FDBE520E6FF45241,40.7047691345215,-73.9354629516602,Brooklyn,A1,ALT 1 Enlargement,321371369,3071474,A1,4044,true,26136,5/11/2018,5/7/2019 12:00,229,MOORE STREET,301,MINT DEVELOPMENT CORP,BUSINESS,2,
0101000020E6100000000000C0BF7F52C000000060C25B4440,2615012,0101000020110F00008755D071256C5FC19D6FB24E2BF65241,40.716869354248,-73.9960784912109,Manhattan,NB,New Building,123350391,1002611,NB,4426,false,17669,3/13/2018,3/13/2019 12:00,76,BOWERY,102,TITAN REALTY & CONSTRUCTI,BUSINESS,8,
0101000020E6100000000000A0747D52C000000060005C4440,708920,0101000020110F0000574D582740685FC1BBBF11C870F65241,40.7187614440918,-73.9602432250977,Brooklyn,NB,New Building,321454341,3422768,NB,4494,false,4790,7/25/2018,7/19/2019 12:00,91,NORTH 6 STREET,301,G BUILDERS V LLC,MERCANTILE,2,
0101000020E6100000000000601A7252C0000000804E5D4440,257000,0101000020110F0000252F7A98F7545FC1262C2738E7F75241,40.7289581298828,-73.7828598022461,Queens,A1,ALT 1 Enlargement,421327308,4154999,A1,4811,true,0,2/16/2018,2/15/2019 12:00,186-03,UNION TURNPIKE,408,GIM CONSTRUCTION INC,BUSINESS,2,
0101000020E6100000000000C0CD7C52C000000000F35D4440,13162824,0101000020110F0000A64620B324675FC1EC6671969FF85241,40.7339782714844,-73.9500579833984,Brooklyn,NB,New Building,320626408,3064222,NB,4966,false,88938,3/29/2018,3/29/2019 12:00,270,GREEN STREET,301,"BROOKLYN GC, LLC",BUSINESS,6,
0101000020E6100000000000E0497A52C0000000C0A0614440,40404,0101000020110F000036246303DF625FC1A091A659BFFC5241,40.7627182006836,-73.910758972168,Queens,NB,New Building,421219719,4012132,NB,6088,false,273,3/6/2018,1/13/2019 12:00,28-40,45 STREET,401,SAL D'AMICO CONSTR. INC,UTILITY / MISCELLANEOUS,1,4
0101000020E610000000000040837252C00000002084634440,66600,0101000020110F0000F6C781BCA9555FC1EE220C6CDDFE5241,40.7774696350098,-73.7892608642578,Queens,NB,New Building,421579385,4129802,NB,6465,false,450,7/16/2018,9/19/2018 12:00,204-05,23 AVENUE,407,WETHERALL CONTRACTING OF,UTILITY / MISCELLANEOUS,1,
0101000020E610000000000000E97652C0000000C05B644440,1200000,0101000020110F0000A88A9EEF215D5FC16FA7FE44CFFF5241,40.784049987793,-73.8579711914062,Queens,A1,ALT 1 Enlargement,401843617,4097876,A1,6563,true,107000,2/8/2018,2/17/2019 12:00,109-09,15 AVENUE,407,KING'S USA GROUP INC,THREE FAMILY DWELLING,6,134
0101000020E610000000000080867C52C0000000002D664440,10212000,0101000020110F0000948EA6ACAB665FC176B14B2ED9015341,40.7982482910156,-73.9457092285156,Manhattan,NB,New Building,121203991,1051633,NB,6776,false,69000,8/24/2018,8/24/2019 12:00,1713,MADISON AVE,111,MC GOWAN BUILDERS INC,EDUCATIONAL,4,
0101000020E6100000000000E0917D52C0000000E0D2664440,8600000,0101000020110F0000666877D671685FC11344C34893025341,40.8033103942871,-73.962028503418,Manhattan,A1,ALT 1 Enlargement,122886500,1086190,A1,6807,true,7868,4/17/2018,4/20/2019 12:00,28,MORNINGSIDE DRIVE,109,JRM CONSTRUCTION MGMT LLC,EDUCATIONAL,4,
0101000020E610000000000020F17852C0000000201D684440,740000,0101000020110F0000C2B0B06B95605FC17155B0D905045341,40.8133888244629,-73.8897171020508,Bronx,NB,New Building,210060039,2802562,NB,6902,false,5000,5/10/2018,5/10/2019 12:00,658,CASANOVA,202,GALAXY GENERAL CONTRACTIN,STORAGE: LOW HAZARD,1,0
0101000020E6100000000000E0817C52C0000000606E694440,7821208,0101000020110F00007BE981D1A3665FC1F441405480055341,40.8236808776855,-73.945426940918,Manhattan,NB,New Building,122239434,1090659,NB,7000,false,52846,7/13/2018,7/13/2019 12:00,691,ST. NICHOLAS AVENUE,109,REAL BUILDERS INC,EDUCATIONAL,6,0
0101000020E610000000000040807D52C000000000C24C4440,961704,0101000020110F0000F16161E653685FC18092EED05FE55241,40.5996704101562,-73.9609527587891,Brooklyn,NB,New Building,321309124,3421806,NB,1036,false,6498,5/11/2018,1/8/2019 12:00,2353,CONEY ISLAND AVE,315,Z H L GROUP INC,RESIDENTIAL: APARTMENT HOUSES,3,2
0101000020E610000000000060837452C000000000684E4440,269360,0101000020110F0000EB00D8A10F595FC17CA4A5E537E75241,40.612548828125,-73.8205184936523,Queens,NB,New Building,420663311,4430534,NB,1321,false,1820,6/13/2018,9/1/2018 12:00,329,BERT ROAD,414,LMD RESIDENTIAL INC,RESIDENTIAL: 1 & 2 FAMILY HOUSES,2,1
0101000020E6100000000000405E7E52C000000040AC4E4440,9865976,0101000020110F0000B45640FDCC695FC180D6534184E75241,40.614631652832,-73.9745025634766,Brooklyn,NB,New Building,321042288,3425794,NB,1375,false,66662,5/9/2018,1/1/2019 12:00,2357,60TH ST,312,ROYAL HOME IMPROVEMENTS I,BUSINESS,9,
0101000020E6100000000000A06E8052C000000020A2514440,12072212,0101000020110F00005D49C47C4E6D5FC153147953D4EA5241,40.6377601623535,-74.0067520141602,Brooklyn,NB,New Building,320528489,3425096,NB,1965,false,81569,8/6/2018,7/28/2019 12:00,5521,8TH AVENUE,312,MANDARIN ENTPRSES II INC,BUSINESS,6,
0101000020E610000000000080F37B52C0000000E0205B4440,986716,0101000020110F00000C69E9FAB1655FC123390B5976F55241,40.7119407653809,-73.9367370605469,Brooklyn,NB,New Building,321513439,3425599,NB,4233,false,6667,8/10/2018,8/5/2019 12:00,306,MAUJER STREET,301,IA CONSTRUCTION MGMT,BUSINESS,2,0
0101000020E610000000000000277652C000000040AD5D4440,50616,0101000020110F0000E6535168D85B5FC166FE5B6951F85241,40.7318496704102,-73.8461303710938,Queens,NB,New Building,421514221,4607537,NB,4902,false,342,10/31/2017,9/14/2018 12:00,65-17,110 STREET,406,JD ARCH LLC,UTILITY / MISCELLANEOUS,1,
0101000020E6100000000000C0FF7252C000000040255E4440,52540,0101000020110F000086624E367D565FC11426DEE8D7F85241,40.7355117797852,-73.7968597412109,Queens,NB,New Building,421561161,4149337,NB,4998,false,355,6/5/2018,11/17/2018 12:00,65-32,173 STREET,408,WINSTON ANDREW SEYMOUR,UTILITY / MISCELLANEOUS,1,
0101000020E610000000000000B17252C0000000C08C5E4440,922928,0101000020110F0000217C8472F7555FC1BCEC90EB4BF95241,40.7386703491211,-73.7920532226562,Queens,NB,New Building,421403813,4617587,NB,5094,false,6236,7/23/2018,1/14/2019 12:00,61-10,182 STREET,408,DYNASTY CONTRACTING LLC,MERCANTILE,2,
0101000020E6100000000000C0B57B52C000000000CD5E4440,550000,0101000020110F000096DA6E1749655FC1628B6CF093F95241,40.7406311035156,-73.9329681396484,Queens,A1,ALT 1 Enlargement,420662367,4003465,A1,5151,true,120,4/13/2018,1/1/2019 12:00,32-32,48TH AVE,402,"STRUCTURE TONE, LLC",BUSINESS,2,
0101000020E610000000000020027C52C0000000C0D75E4440,1977355,0101000020110F000094F678D2CA655FC109413EFD9FF95241,40.7409591674805,-73.937629699707,Queens,A1,ALT 1 Enlargement,421211593,4003546,A1,5165,true,0,7/3/2018,3/1/2019 12:00,30-02,48TH AVENUE,402,CORE FOUR CONSTRUCTION IN,BUSINESS,3,
0101000020E6100000000000A0C36E52C000000080A5604440,32560,0101000020110F0000B86D7BB74B4F5FC1E87C5AA3A5FB5241,40.7550506591797,-73.7306900024414,Queens,NB,New Building,421575094,4597019,NB,5772,false,220,4/10/2018,10/1/2018 12:00,245-62,63  AVE,411,WING JAY CONSTRUCTION INC,UTILITY / MISCELLANEOUS,1,
0101000020E6100000000000804E7552C000000040C5604440,1924000,0101000020110F00002C9213A9685A5FC108CC593CC9FB5241,40.7560195922852,-73.8329162597656,Queens,NB,New Building,421036177,4114199,NB,5834,false,13000,7/19/2018,6/25/2019 12:00,132-21,41 ROAD,407,METROCITY CONSTRUCTION,ASSEMBLY: OTHER,7,2
0101000020E6100000000000A05A8F52C000000040DD3F4440,221852,0101000020110F0000EC1D4B24A7865FC103465A7BF6D65241,40.4989395141602,-74.2399063110352,Staten Island,NB,New Building,520317988,5087858,NB,1,false,1499,3/8/2018,3/8/2019 12:00,686,YETMAN AVENUE,503,TROY CONSTRUCTION OF NY I,RESIDENTIAL: 1 & 2 FAMILY HOUSES,3,1
0101000020E6100000000000E05B8F52C000000080E43F4440,652236,0101000020110F0000FA7AD843A9865FC1FBF64B94FED65241,40.4991607666016,-74.2399826049805,Staten Island,NB,New Building,520300781,5087855,NB,2,false,4407,1/16/2018,9/2/2018 12:00,678,YETMAN  AVENUE,503,L & M HOMES LLC,RESIDENTIAL: 1 & 2 FAMILY HOUSES,3,1
0101000020E6100000000000A04C8F52C000000020E63F4440,211196,0101000020110F0000EB3E825C8F865FC1DE4EEC6400D75241,40.499210357666,-74.2390518188477,Staten Island,A1,ALT 1 Enlargement,520237002,5170220,A1,3,true,82,1/31/2018,1/30/2019 12:00,722,ROCKAWAY STREET,503,"WAHLER PLACE,LLC",BUSINESS,2,1
0101000020E610000000000020728F52C000000080E63F4440,18648,0101000020110F00008926130FCF865FC1E00325D000D75241,40.4992218017578,-74.241340637207,Staten Island,NB,New Building,520135602,5169688,NB,4,false,126,2/16/2018,2/12/2019 12:00,437,BRIGHTON STREET,503,SPHINX CONSTRUCTION INC,RESIDENTIAL: 1 & 2 FAMILY HOUSES,1,1
0101000020E6100000000000204E8F52C0000000A0F03F4440,548932,0101000020110F0000627BC5E891865FC16DE0211F0CD75241,40.4995307922363,-74.239143371582,Staten Island,NB,New Building,520219629,5165136,NB,5,false,3709,8/9/2018,3/5/2019 12:00,712,ROCKAWAY STREET,503,EG ENTERPRISES NY INC,RESIDENTIAL: 1 & 2 FAMILY HOUSES,3,1
0101000020E610000000000060468F52C000000060FC3F4440,43254,0101000020110F0000A76DBFBE84865FC1ECB2C33E19D75241,40.4998893737793,-74.2386703491211,Staten Island,A1,ALT 1 Enlargement,520221670,5087660,A1,6,true,267,8/9/2018,8/5/2019 12:00,703,ROCKAWAY STREET,503,FINIX U.S.A. CONSTRUCTION,RESIDENTIAL: 1 & 2 FAMILY HOUSES,2,2
0101000020E6100000000000606D8F52C00000008045404440,461020,0101000020110F0000BB9193FDC6865FC11D5584EB6AD75241,40.5021209716797,-74.2410507202148,Staten Island,NB,New Building,520298516,5169689,NB,7,false,3115,3/6/2018,2/20/2019 12:00,522,CLERMONT AVE,503,JRJ DEVELOPMENT LLC,RESIDENTIAL: 1 & 2 FAMILY HOUSES,3,2
0101000020E610000000000080C08E52C0000000005E404440,1305656,0101000020110F00002E994E58A1855FC1D083FF4886D75241,40.5028686523438,-74.2304992675781,Staten Island,NB,New Building,500401825,5848912,NB,8,false,8822,6/26/2018,6/26/2019 12:00,43,OTTAVIO PROMENADE,503,NELLO DEVELOPMENT CORP,RESIDENTIAL: 1 & 2 FAMILY HOUSES,3,1
0101000020E610000000000060B68E52C0000000005F404440,663040,0101000020110F00000CC1882590855FC1C711F06687D75241,40.5028991699219,-74.2298812866211,Staten Island,NB,New Building,500401807,5841213,NB,9,false,4480,5/15/2018,5/15/2019 12:00,64,OTTAVIO PROMENADE,503,SAVOY DEVELOPMENT INC,RESIDENTIAL 1-2 FAMILY HOUSES,2,2
0101000020E610000000000020B18E52C00000004062404440,926332,0101000020110F00006B6D9D3A87855FC1011A3E088BD75241,40.5029983520508,-74.2295608520508,Staten Island,NB,New Building,500401816,5848916,NB,10,false,6259,5/15/2018,5/15/2019 12:00,74,OTTAVIO PROMENADE,503,SAVOY DEVELOPMENT INC,RESIDENTIAL 1-2 FAMILY HOUSES,2,2
0101000020E610000000000020C48E52C0000000C06B404440,573056,0101000020110F0000A3C09B80A7855FC1010FAEA495D75241,40.503288269043,-74.2307205200195,Staten Island,NB,New Building,500397554,5848926,NB,11,false,3872,5/31/2018,5/19/2019 12:00,55,LEONELLO LANE,503,PINA DEVELOPEMENT LLC,RESIDENTIAL 1-2 FAMILY HOUSES,2,1
0101000020E610000000000000AF8E52C0000000C070404440,920412,0101000020110F00006E82939E83855FC12A74633A9BD75241,40.5034408569336,-74.2294311523438,Staten Island,NB,New Building,510033465,5863186,NB,12,false,6219,5/31/2018,5/19/2019 12:00,81,OTTAVIO PROMENADE,503,PINA DEVELOPEMENT LLC,RESIDENTIAL 1-2 FAMILY HOUSES,2,1
0101000020E610000000000000CE8E52C00000000072404440,926332,0101000020110F00005DB9AB46B8855FC1C5EED09F9CD75241,40.5034790039062,-74.2313232421875,Staten Island,NB,New Building,500398367,5170443,NB,13,false,6259,5/31/2018,5/19/2019 12:00,24,OTTAVIO PROMENADE,503,PINA DEVELOPEMENT LLC,RESIDENTIAL 1-2 FAMILY HOUSES,2,2
0101000020E6100000000000A0C08E52C0000000A074404440,1045028,0101000020110F0000E388A98EA1855FC12C356A8E9FD75241,40.5035591125488,-74.2305068969727,Staten Island,NB,New Building,520313839,5168934,NB,14,false,7061,6/22/2018,1/26/2019 12:00,59,BELWOOD LOOP,503,MADONIA DEVELOPMENT CORP,RESIDENTIAL: 1 & 2 FAMILY HOUSES,2,1
0101000020E610000000000000A68E52C00000000075404440,706700,0101000020110F0000A517005574855FC1C0B1A4F99FD75241,40.5035705566406,-74.2288818359375,Staten Island,NB,New Building,510033483,5863184,NB,15,false,4775,5/15/2018,5/15/2019 12:00,99,OTTAVIO PROMENADE,503,SAVOY DEVELOPMENT INC,RESIDENTIAL 1-2 FAMILY HOUSES,2,1
0101000020E6100000000000E0209052C00000000076404440,150000,0101000020110F0000AA2AACE3F7875FC1CB039617A1D75241,40.5036010742188,-74.2520065307617,Staten Island,A1,ALT 1 Enlargement,520202619,5088447,A1,16,true,1485,5/17/2018,4/17/2019 12:00,161,SATTERLEE STREET,503,WT BUILDERS LLC,RESIDENTIAL: 1 & 2 FAMILY HOUSES,2,1
0101000020E610000000000040BC8E52C0000000A076404440,810744,0101000020110F000032C33A209A855FC167DB4CCAA1D75241,40.5036201477051,-74.2302398681641,Staten Island,NB,New Building,520270741,5168933,NB,17,false,5478,3/6/2018,3/1/2019 12:00,55,BELWOOD LOOP,503,BRIDLE ESTATES INC,RESIDENTIAL: 1 & 2 FAMILY HOUSES,2,1
0101000020E610000000000060B48E52C0000000E079404440,1148628,0101000020110F0000C3C5D9BF8C855FC13F729D6BA5D75241,40.503719329834,-74.2297592163086,Staten Island,NB,New Building,520277012,5168931,NB,18,false,7761,3/6/2018,3/1/2019 12:00,47,BELWOOD LOOP,503,BRIDLE ESTATES INC,RESIDENTIAL: 1 & 2 FAMILY HOUSES,2,1
0101000020E610000000000000B88E52C0000000E07D404440,85248,0101000020110F000038ED26E892855FC1D69363E3A9D75241,40.5038414001465,-74.22998046875,Staten Island,NB,New Building,520317657,5170281,NB,19,false,576,3/6/2018,3/6/2019 12:00,55GAR,BELWOOD LOOP,503,BRIDLE ESTATES INC,UTILITY / MISCELLANEOUS,1,
0101000020E6100000000000E0D48E52C0000000E08E404440,1593960,0101000020110F0000293935F4C3855FC1859473E0BCD75241,40.5043601989746,-74.2317428588867,Staten Island,NB,New Building,520135862,5168936,NB,20,false,10770,5/18/2018,3/1/2019 12:00,17,BELVEDERE COURT,503,BRIDLE ESTATES INC,RESIDENTIAL: 1 & 2 FAMILY HOUSES,3,1
0101000020E6100000000000E0D48E52C0000000E08E404440,772116,0101000020110F0000293935F4C3855FC1859473E0BCD75241,40.5043601989746,-74.2317428588867,Staten Island,NB,New Building,520308284,5168936,NB,21,false,5217,3/6/2018,3/1/2019 12:00,17,BELVEDERE COURT,503,BRIDLE ESTATES INC,RESIDENTIAL: 1 & 2 FAMILY HOUSES,2,1
0101000020E610000000000060D98E52C00000000097404440,734820,0101000020110F00008EEEFE98CB855FC16946C4F3C5D75241,40.5046081542969,-74.2320175170898,Staten Island,NB,New Building,520317611,5151849,NB,22,false,4965,3/6/2018,3/1/2019 12:00,16,BELVEDERE COURT,503,BRIDLE ESTATES INC,RESIDENTIAL: 1 & 2 FAMILY HOUSES,2,1
0101000020E6100000000000C0C18F52C000000000D2404440,90250,0101000020110F0000DE9A594F56875FC185FBDDDA07D85241,40.5064086914062,-74.2462005615234,Staten Island,A1,ALT 1 Enlargement,520319432,5088194,A1,23,true,141,7/25/2018,7/22/2019 12:00,154,PITTSVILLE AVENUE,503,TROOST BROS INC,RESIDENTIAL: 1 & 2 FAMILY HOUSES,2,1
0101000020E610000000000060069052C000000080EE404440,520072,0101000020110F00001FA95DE0CA875FC1F2F2A0B027D85241,40.5072784423828,-74.2503890991211,Staten Island,NB,New Building,520298927,5169007,NB,24,false,3514,8/16/2018,5/13/2019 12:00,37,SUMMIT ROAD,503,"OAK DEVELOPERS,LLC",RESIDENTIAL: 1 & 2 FAMILY HOUSES,3,2
0101000020E610000000000000FE8E52C000000020F1404440,42328,0101000020110F00003B4813CF09865FC1FB1B459F2AD85241,40.5073585510254,-74.2342529296875,Staten Island,NB,New Building,520326978,5093023,NB,25,false,286,7/11/2018,12/20/2018 12:00,31,GIEGERICH PLACE,503,NOCE CONSTRUCTION CORP,UTILITY / MISCELLANEOUS,1,
0101000020E6100000000000A00A9052C000000020F3404440,508084,0101000020110F00001A7F7118D2875FC15D0D30DB2CD85241,40.5074195861816,-74.2506484985352,Staten Island,NB,New Building,520298918,5088389,NB,26,false,3433,8/16/2018,5/13/2019 12:00,43,SUMMIT ROAD,503,"OAK DEVELOPERS,LLC",RESIDENTIAL: 1 & 2 FAMILY HOUSES,3,2
0101000020E6100000000000C0A58F52C000000020F5404440,533688,0101000020110F0000DBDCC7BF26875FC1D6201B172FD85241,40.5074806213379,-74.2444915771484,Staten Island,NB,New Building,520288787,5170166,NB,27,false,3606,5/2/2018,12/18/2018 12:00,116,BRIGHTON STREET,503,BELL BUILDING CORP,RESIDENTIAL: 1 & 2 FAMILY HOUSES,3,2
0101000020E6100000000000A0AA8F52C0000000C0F5404440,533688,0101000020110F00005E61A2072F875FC1EC9DD4C92FD85241,40.5074996948242,-74.2447891235352,Staten Island,NB,New Building,520288778,5088133,NB,28,false,3606,5/2/2018,12/18/2018 12:00,122,BRIGHTON STREET,503,BELL BUILDING CORP,RESIDENTIAL: 1 & 2 FAMILY HOUSES,3,2
0101000020E6100000000000E0E38E52C0000000A0FC404440,277352,0101000020110F0000CE95D56EDD855FC1B5D9CD7737D85241,40.5077095031738,-74.2326583862305,Staten Island,NB,New Building,520137913,5155591,NB,29,false,1874,9/22/2017,9/22/2018 12:00,245,BEDELL AVENUE,503,XBR INC,UTILITY / MISCELLANEOUS,1,
0101000020E610000000000060528F52C000000040FE404440,589632,0101000020110F00005E51D92099865FC1965A7D4839D85241,40.5077590942383,-74.2394027709961,Staten Island,NB,New Building,520308514,5169750,NB,30,false,3984,3/15/2018,10/30/2018 12:00,142,SPRAGUE AVE,503,WALLACE AVENUE CONSTR LLC,RESIDENTIAL: 1 & 2 FAMILY HOUSES,3,2
0101000020E610000000000060528F52C000000040FE404440,584304,0101000020110F00005E51D92099865FC1965A7D4839D85241,40.5077590942383,-74.2394027709961,Staten Island,NB,New Building,520308523,5170122,NB,31,false,3948,3/15/2018,10/30/2018 12:00,144,SPRAGUE AVE,503,WALLACE AVENUE CONSTR LLC,RESIDENTIAL: 1 & 2 FAMILY HOUSES,3,2
0101000020E610000000000080B48F52C0000000C00C414440,200000,0101000020110F0000175AB2CD3F875FC14D0CEE7A49D85241,40.5082015991211,-74.2453918457031,Staten Island,A1,ALT 1 Enlargement,520306767,5088146,A1,32,true,1196,7/11/2018,10/26/2018 12:00,41,CHELSEA STREET,503,MONELLO ENTERPRISES INC,RESIDENTIAL: 1 & 2 FAMILY HOUSES,2,1
0101000020E6100000000000C0C88F52C0000000600D414440,39072,0101000020110F00005E0A3E3362875FC14D07A82D4AD85241,40.5082206726074,-74.2466278076172,Staten Island,NB,New Building,520325229,5170442,NB,33,false,264,4/9/2018,12/31/2018 12:00,282 GAR,MAIN STREET,503,PREMIER PARTITION & DRYWA,UTILITY / MISCELLANEOUS,1,0
0101000020E610000000000060CD8F52C0000000A00F414440,623080,0101000020110F000077AF620E6A875FC14B7712B14CD85241,40.5082893371582,-74.2469100952148,Staten Island,NB,New Building,520325112,5088268,NB,34,false,4210,4/2/2018,12/31/2018 12:00,282,MAIN STREET,503,PREMIER PARTITION & DRYWA,RESIDENTIAL: 1 & 2 FAMILY HOUSES,3,2
0101000020E610000000000040C98F52C00000004010414440,623080,0101000020110F00002FC9A90C63875FC19B81CC634DD85241,40.5083084106445,-74.2466583251953,Staten Island,NB,New Building,520325103,5170411,NB,35,false,4210,4/2/2018,12/31/2018 12:00,278,MAIN STREET,503,PREMIER PARTITION & DRYWA,RESIDENTIAL: 1 & 2 FAMILY HOUSES,3,2
0101000020E610000000000040C98F52C00000004010414440,39072,0101000020110F00002FC9A90C63875FC19B81CC634DD85241,40.5083084106445,-74.2466583251953,Staten Island,NB,New Building,520325210,5170414,NB,36,false,264,4/9/2018,12/31/2018 12:00,278 GAR,MAIN STREET,503,PREMIER PARTITION & DRYWA,UTILITY / MISCELLANEOUS,1,0
0101000020E6100000000000600A9052C0000000E029414440,210750,0101000020110F0000B29FBBABD1875FC1285DA3036AD85241,40.509090423584,-74.2506332397461,Staten Island,A1,ALT 1 Enlargement,520328681,5089344,A1,37,true,787,8/21/2018,8/4/2019 12:00,536,CRAIG AVENUE,503,D.R. CONTRACTING,RESIDENTIAL: 1 & 2 FAMILY HOUSES,2,1
0101000020E610000000000020FB8F52C0000000A036414440,542420,0101000020110F0000A36365C4B7875FC1DC82B74178D85241,40.5094795227051,-74.2497024536133,Staten Island,NB,New Building,520321385,5170818,NB,38,false,3665,8/16/2018,11/8/2018 12:00,139,BENTLEY STREET,503,TCS CONTRACTING INC,RESIDENTIAL: 1 & 2 FAMILY HOUSES,3,2
0101000020E610000000000020FB8F52C0000000A036414440,542420,0101000020110F0000A36365C4B7875FC1DC82B74178D85241,40.5094795227051,-74.2497024536133,Staten Island,NB,New Building,520321394,5170817,NB,39,false,3665,8/16/2018,11/8/2018 12:00,141,BENTLEY STREET,503,TCS CONTRACTING INC,RESIDENTIAL: 1 & 2 FAMILY HOUSES,3,2
0101000020E6100000000000E0B38F52C00000008050414440,384948,0101000020110F000091ABEBBD3E875FC1F5472D2995D85241,40.5102691650391,-74.2453536987305,Staten Island,NB,New Building,520167998,5089238,NB,40,false,2601,10/5/2017,10/5/2018 12:00,229,JOHNSON AVENUE,503,CAPITAL TILE CORP,STORAGE: LOW HAZARD,1,
0101000020E6100000000000C06D8F52C00000004064414440,600288,0101000020110F0000D860A4A0C7865FC196EE2139ABD85241,40.510871887207,-74.2410736083984,Staten Island,NB,New Building,520277833,5860006,NB,41,false,4056,8/20/2018,8/17/2019 12:00,7316,AMBOY ROAD,503,NICOLOSI BROS INC,ASSEMBLY: EATING & DRINKING,1,
0101000020E6100000000000602A9052C00000008064414440,575276,0101000020110F00004554AB0608885FC15840A080ABD85241,40.5108795166016,-74.2525863647461,Staten Island,NB,New Building,520265258,5166270,NB,42,false,3887,1/18/2018,1/18/2019 12:00,5511,ARTHUR KILL ROAD,503,TOM'S GENERAL CONTRACTING,RESIDENTIAL: 1 & 2 FAMILY HOUSES,2,2
0101000020E610000000000020988F52C0000000A06E414440,581640,0101000020110F0000F9CC0F9B0F875FC1A1EF1DD0B6D85241,40.5111885070801,-74.2436599731445,Staten Island,NB,New Building,520298794,5169043,NB,43,false,3930,4/17/2018,2/27/2019 12:00,240,LEE AVENUE,503,JOE CINA & SONS CONTRACT,RESIDENTIAL: 1 & 2 FAMILY HOUSES,2,2
0101000020E6100000000000203B9052C0000000A070414440,837976,0101000020110F0000CACC447A24885FC1A13D110CB9D85241,40.5112495422363,-74.2536087036133,Staten Island,NB,New Building,520265249,5088624,NB,44,false,5662,1/18/2018,1/18/2019 12:00,5517,ARTHUR KILL ROAD,503,TOM'S GENERAL CONTRACTING,RESIDENTIAL: 1 & 2 FAMILY HOUSES,3,2
0101000020E6100000000000C0868F52C0000000E076414440,514300,0101000020110F0000ECA5AF17F2865FC13F6D6A07C0D85241,40.5114402770996,-74.2425994873047,Staten Island,NB,New Building,520225122,5166384,NB,45,false,3475,2/20/2018,2/19/2019 12:00,254,WOOD AVENUE,503,MAXIMUM CONTRACTING INC,RESIDENTIAL: 1 & 2 FAMILY HOUSES,3,2
0101000020E6100000000000C0FE8E52C0000000207D414440,687904,0101000020110F000077E634150B865FC108EAC402C7D85241,40.5116310119629,-74.2342987060547,Staten Island,NB,New Building,520043756,5151955,NB,46,false,4648,11/15/2017,11/15/2018 12:00,101,BEDELL AVENUE,503,LT LAND DEVELOPMENT CORP,RESIDENTIAL: 1 & 2 FAMILY HOUSES,2,1
0101000020E6100000000000C0F38E52C00000000082414440,718836,0101000020110F00006480F265F8855FC1D08EE874CCD85241,40.5117797851562,-74.2336273193359,Staten Island,NB,New Building,520043774,5169173,NB,47,false,4857,11/15/2017,11/15/2018 12:00,9,TUCCI COURT,503,LT LAND DEVELOPMENT CORP,RESIDENTIAL: 1 & 2 FAMILY HOUSES,2,1
0101000020E610000000000080F48E52C00000004087414440,718688,0101000020110F00009F1E14ACF9855FC1E7E74A52D2D85241,40.5119400024414,-74.2336730957031,Staten Island,NB,New Building,520043765,5169172,NB,48,false,4856,11/15/2017,11/15/2018 12:00,7,TUCCI COURT,503,LT LAND DEVELOPMENT CORP,RESIDENTIAL: 1 & 2 FAMILY HOUSES,2,1
0101000020E610000000000040318F52C00000006095414440,727716,0101000020110F0000712FB7DC60865FC1DCAFBF19E2D85241,40.5123710632324,-74.2373809814453,Staten Island,NB,New Building,520214367,5087621,NB,49,false,4917,2/13/2018,2/5/2019 12:00,34,JOLINE AVE,503,ALKA CONTRACTING INC,RESIDENTIAL: 1 & 2 FAMILY HOUSES,2,1
0101000020E6100000000000C0718C52C0000000E09D414440,512968,0101000020110F0000886989E5B5815FC156A09598EBD85241,40.5126304626465,-74.1944427490234,Staten Island,NB,New Building,520315150,5169840,NB,50,false,3466,8/15/2018,4/1/2019 12:00,72,PURDY PLACE,503,KDC OF STATEN ISLAND INC,RESIDENTIAL: 1 & 2 FAMILY HOUSES,3,1
0101000020E610000000000020748C52C0000000809E414440,512968,0101000020110F0000EF3349EEB9815FC1EEA0524BECD85241,40.5126495361328,-74.1945877075195,Staten Island,NB,New Building,520315285,5169839,NB,51,false,3466,8/15/2018,4/1/2019 12:00,68,PURDY PLACE,503,KDC OF STATEN ISLAND INC,RESIDENTIAL: 1 & 2 FAMILY HOUSES,3,1
0101000020E6100000000000A0768C52C0000000209F414440,512968,0101000020110F00000BEE632DBE815FC1DDA40FFEECD85241,40.5126686096191,-74.1947402954102,Staten Island,NB,New Building,520315276,5169838,NB,52,false,3466,8/15/2018,4/1/2019 12:00,64,PURDY PLACE,503,KDC OF STATEN ISLAND INC,RESIDENTIAL: 1 & 2 FAMILY HOUSES,3,1
0101000020E610000000000020798C52C0000000E09F414440,512968,0101000020110F000026A87E6CC2815FC15E148CD4EDD85241,40.5126914978027,-74.1948928833008,Staten Island,NB,New Building,520315267,5169837,NB,53,false,3466,8/15/2018,4/1/2019 12:00,60,PURDY PLACE,503,KDC OF STATEN ISLAND INC,RESIDENTIAL: 1 & 2 FAMILY HOUSES,3,1
0101000020E6100000000000C07B8C52C000000080A0414440,512968,0101000020110F0000F751F4E1C6815FC1A01F4987EED85241,40.5127105712891,-74.1950531005859,Staten Island,NB,New Building,520315258,5169836,NB,54,false,3466,8/15/2018,4/1/2019 12:00,50,PURDY PLACE,503,KDC OF STATEN ISLAND INC,RESIDENTIAL: 1 & 2 FAMILY HOUSES,3,1
0101000020E6100000000000607E8C52C000000020A1414440,512968,0101000020110F0000C7FB6957CB815FC1342E063AEFD85241,40.5127296447754,-74.1952133178711,Staten Island,NB,New Building,520315249,5169835,NB,55,false,3466,8/15/2018,4/1/2019 12:00,46,PURDY PLACE,503,KDC OF STATEN ISLAND INC,RESIDENTIAL: 1 & 2 FAMILY HOUSES,3,1
0101000020E610000000000000818C52C0000000C0A1414440,512968,0101000020110F000097A5DFCCCF815FC12040C3ECEFD85241,40.5127487182617,-74.1953735351562,Staten Island,NB,New Building,520315230,5169834,NB,56,false,3466,8/15/2018,4/1/2019 12:00,42,PURDY PLACE,503,KDC OF STATEN ISLAND INC,RESIDENTIAL: 1 & 2 FAMILY HOUSES,3,1
0101000020E6100000000000A0838C52C000000080A2414440,512968,0101000020110F0000674F5542D4815FC16EC03FC3F0D85241,40.5127716064453,-74.1955337524414,Staten Island,NB,New Building,520315221,5169833,NB,57,false,3466,8/15/2018,4/1/2019 12:00,38,PURDY PLACE,503,KDC OF STATEN ISLAND INC,RESIDENTIAL: 1 & 2 FAMILY HOUSES,3,1
0101000020E610000000000000868C52C000000020A3414440,512968,0101000020110F0000CF19154BD8815FC1AED9FC75F1D85241,40.5127906799316,-74.1956787109375,Staten Island,NB,New Building,520315212,5169814,NB,58,false,3466,8/15/2018,4/1/2019 12:00,34,PURDY PLACE,503,KDC OF STATEN ISLAND INC,RESIDENTIAL: 1 & 2 FAMILY HOUSES,3,1
0101000020E610000000000080888C52C0000000C0A3414440,512968,0101000020110F0000EAD32F8ADC815FC144F6B928F2D85241,40.512809753418,-74.1958312988281,Staten Island,NB,New Building,520315203,5169832,NB,59,false,3466,8/15/2018,4/1/2019 12:00,30,PURDY PLACE,503,KDC OF STATEN ISLAND INC,RESIDENTIAL: 1 & 2 FAMILY HOUSES,3,1
0101000020E6100000000000E08A8C52C0000000C0A4414440,512968,0101000020110F0000519EEF92E0815FC11F5EB546F3D85241,40.5128402709961,-74.1959762573242,Staten Island,NB,New Building,520315196,5169831,NB,60,false,3466,8/15/2018,4/1/2019 12:00,26,PURDY PLACE,503,KDC OF STATEN ISLAND INC,RESIDENTIAL: 1 & 2 FAMILY HOUSES,3,1
0101000020E6100000000000608D8C52C000000060A5414440,512968,0101000020110F00006D580AD2E4815FC15F8372F9F3D85241,40.5128593444824,-74.1961288452148,Staten Island,NB,New Building,520315187,5169830,NB,61,false,3466,8/15/2018,4/1/2019 12:00,22,PURDY PLACE,503,KDC OF STATEN ISLAND INC,RESIDENTIAL: 1 & 2 FAMILY HOUSES,3,1
0101000020E6100000000000E08F8C52C0000000C0A5414440,512968,0101000020110F000088122511E9815FC185CEB064F4D85241,40.5128707885742,-74.1962814331055,Staten Island,NB,New Building,520315178,5169829,NB,62,false,3466,8/15/2018,4/1/2019 12:00,18,PURDY PLACE,503,KDC OF STATEN ISLAND INC,RESIDENTIAL: 1 & 2 FAMILY HOUSES,3,1
0101000020E610000000000020938C52C000000060A7414440,512968,0101000020110F0000DE6A6196EE815FC156776935F6D85241,40.5129203796387,-74.1964797973633,Staten Island,NB,New Building,520315169,5169828,NB,63,false,3466,8/15/2018,4/1/2019 12:00,14,PURDY PLACE,503,KDC OF STATEN ISLAND INC,RESIDENTIAL: 1 & 2 FAMILY HOUSES,3,1
0101000020E610000000000080F78E52C0000000A0A9414440,995300,0101000020110F00008D979AC4FE855FC19B72DFB8F8D85241,40.5129890441895,-74.2338562011719,Staten Island,NB,New Building,520244806,5165152,NB,64,false,6725,1/26/2018,10/17/2018 12:00,77,GIEGERICH AVENUE,503,BLUE STAR GROUP LLC,RESIDENTIAL: 1 & 2 FAMILY HOUSES,3,1
0101000020E6100000000000A0F08E52C000000040AD414440,605912,0101000020110F0000C1171117F3855FC155A98FC5FCD85241,40.5130996704102,-74.2334365844727,Staten Island,NB,New Building,520244780,5165154,NB,65,false,4094,10/31/2017,10/17/2018 12:00,204,CHEEVERS LANE,503,BLUE STAR GROUP LLC,RESIDENTIAL: 1 & 2 FAMILY HOUSES,3,1
0101000020E610000000000040F88E52C0000000A0AE414440,658748,0101000020110F0000C835BC0A00865FC1C6C9C94EFED85241,40.5131416320801,-74.2339019775391,Staten Island,NB,New Building,520244824,5165151,NB,66,false,4451,2/12/2018,10/17/2018 12:00,69,GIEGERICH AVENUE,503,BLUE STAR GROUP LLC,RESIDENTIAL: 1 & 2 FAMILY HOUSES,3,1
0101000020E610000000000080F88E52C000000040B1414440,604284,0101000020110F00003215727700865FC119C07E3D01D95241,40.5132217407227,-74.2339172363281,Staten Island,NB,New Building,520244833,5165150,NB,67,false,4083,6/4/2018,10/17/2018 12:00,65,GIEGERICH AVENUE,503,BLUE STAR GROUP LLC,RESIDENTIAL: 1 & 2 FAMILY HOUSES,3,1
0101000020E610000000000080D78E52C0000000E0B3414440,456432,0101000020110F0000F9E2AA69C8855FC137F1332C04D95241,40.5133018493652,-74.2319030761719,Staten Island,NB,New Building,520287127,5165149,NB,68,false,3084,11/20/2017,10/17/2018 12:00,462,PAGE AVENUE,503,BLUE STAR GROUP LLC,RESIDENTIAL: 1 & 2 FAMILY HOUSES,3,1
0101000020E610000000000080D78E52C0000000E0B3414440,39368,0101000020110F0000F9E2AA69C8855FC137F1332C04D95241,40.5133018493652,-74.2319030761719,Staten Island,NB,New Building,520326996,5170679,NB,69,false,266,7/17/2018,7/17/2019 12:00,462 GARAGE,PAGE AVENUE,503,BLUE STAR GROUP LLC,UTILITY / MISCELLANEOUS,1,
0101000020E610000000000020DE8E52C0000000C0B5414440,573944,0101000020110F00005B837EAAD3855FC1D95C6C4406D95241,40.5133590698242,-74.232307434082,Staten Island,NB,New Building,520286994,5169685,NB,70,false,3878,10/23/2017,10/17/2018 12:00,390,PAGE AVENUE,503,BLUE STAR GROUP LLC,RESIDENTIAL: 1 & 2 FAMILY HOUSES,3,1
0101000020E610000000000020DE8E52C0000000C0B5414440,573944,0101000020110F00005B837EAAD3855FC1D95C6C4406D95241,40.5133590698242,-74.232307434082,Staten Island,NB,New Building,520287001,5169684,NB,71,false,3878,10/23/2017,10/17/2018 12:00,394,PAGE AVENUE,503,BLUE STAR GROUP LLC,RESIDENTIAL: 1 & 2 FAMILY HOUSES,3,1
0101000020E610000000000020DE8E52C0000000C0B5414440,573944,0101000020110F00005B837EAAD3855FC1D95C6C4406D95241,40.5133590698242,-74.232307434082,Staten Island,NB,New Building,520287038,5165140,NB,72,false,3878,2/20/2018,10/17/2018 12:00,406,PAGE AVENUE,503,BLUE STAR GROUP LLC,RESIDENTIAL: 1 & 2 FAMILY HOUSES,3,1
0101000020E610000000000020DE8E52C0000000C0B5414440,651792,0101000020110F00005B837EAAD3855FC1D95C6C4406D95241,40.5133590698242,-74.232307434082,Staten Island,NB,New Building,520287092,5165146,NB,73,false,4404,2/20/2018,10/17/2018 12:00,438,PAGE AVENUE,503,BLUE STAR GROUP LLC,RESIDENTIAL: 1 & 2 FAMILY HOUSES,3,1
0101000020E610000000000000D88E52C0000000C0B7414440,456432,0101000020110F0000CCA11643C9855FC12E68648008D95241,40.5134201049805,-74.23193359375,Staten Island,NB,New Building,520287118,5165148,NB,74,false,3084,1/26/2018,10/17/2018 12:00,454,PAGE AVENUE,503,BLUE STAR GROUP LLC,RESIDENTIAL: 1 & 2 FAMILY HOUSES,3,1
0101000020E6100000000000A0D88E52C0000000A0BB414440,651792,0101000020110F00005250DD52CA855FC13C5F95D40CD95241,40.5135383605957,-74.2319717407227,Staten Island,NB,New Building,520287109,5165147,NB,75,false,4404,2/20/2018,10/17/2018 12:00,446,PAGE AVENUE,503,BLUE STAR GROUP LLC,RESIDENTIAL: 1 & 2 FAMILY HOUSES,3,1
0101000020E6100000000000A0D98E52C0000000A0C1414440,650460,0101000020110F0000F7CDB405CC855FC144147F8813D95241,40.5137214660645,-74.2320327758789,Staten Island,NB,New Building,520287083,5165145,NB,76,false,4395,2/20/2018,10/17/2018 12:00,434,PAGE AVENUE,503,BLUE STAR GROUP LLC,RESIDENTIAL: 1 & 2 FAMILY HOUSES,3,1
0101000020E6100000000000E0D98E52C000000080C4414440,657416,0101000020110F00005FAD6A72CC855FC184D2B4BE16D95241,40.5138092041016,-74.232048034668,Staten Island,NB,New Building,520287074,5165144,NB,77,false,4442,2/20/2018,10/17/2018 12:00,428,PAGE AVENUE,503,BLUE STAR GROUP LLC,RESIDENTIAL: 1 & 2 FAMILY HOUSES,3,1
0101000020E6100000000000A0DA8E52C000000080C8414440,657416,0101000020110F00009B4B8CB8CD855FC19502A7361BD95241,40.5139312744141,-74.2320938110352,Staten Island,NB,New Building,520287065,5165143,NB,78,false,4442,2/20/2018,10/17/2018 12:00,420,PAGE AVENUE,503,BLUE STAR GROUP LLC,RESIDENTIAL: 1 & 2 FAMILY HOUSES,3,1
0101000020E610000000000000DB8E52C000000020CB414440,650460,0101000020110F0000B91A9D5BCE855FC14F3C5E251ED95241,40.5140113830566,-74.2321166992188,Staten Island,NB,New Building,520287056,5165142,NB,79,false,4395,10/24/2017,10/17/2018 12:00,414,PAGE AVENUE,503,BLUE STAR GROUP LLC,RESIDENTIAL: 1 & 2 FAMILY HOUSES,3,1
0101000020E610000000000080DD8E52C000000020DB414440,573944,0101000020110F0000D5D4B79AD2855FC1B5B72D0530D95241,40.5144996643066,-74.2322692871094,Staten Island,NB,New Building,520287029,5165139,NB,80,false,3878,10/23/2017,10/17/2018 12:00,402,PAGE AVENUE,503,BLUE STAR GROUP LLC,RESIDENTIAL: 1 & 2 FAMILY HOUSES,3,1
0101000020E6100000000000E0DE8E52C000000000E5414440,573944,0101000020110F00009721A0F0D4855FC1B807540D3BD95241,40.5148010253906,-74.2323532104492,Staten Island,NB,New Building,520287010,5165138,NB,81,false,3878,10/23/2017,10/17/2018 12:00,398,PAGE AVENUE,503,BLUE STAR GROUP LLC,RESIDENTIAL: 1 & 2 FAMILY HOUSES,3,1
0101000020E6100000000000406D8F52C0000000406E424440,1957004,0101000020110F000005A238C7C6865FC14579BF62D4D95241,40.5189895629883,-74.2410430908203,Staten Island,NB,New Building,520227157,5088562,NB,82,false,13223,9/1/2017,8/29/2018 12:00,5077,ARTHUR KILL ROAD,503,KDC OF STATEN ISLAND INC,STORAGE: LOW HAZARD,1,
0101000020E610000000000060438D52C0000000406F424440,617012,0101000020110F000077AB3DF719835FC1B4A0C180D5D95241,40.5190200805664,-74.2072372436523,Staten Island,NB,New Building,520259764,5169643,NB,83,false,4169,6/19/2018,1/5/2019 12:00,11,CRESTON STREET,503,PLATINUM PLUMBING HEATING,RESIDENTIAL: 1 & 2 FAMILY HOUSES,3,2
0101000020E610000000000040208D52C0000000608B424440,616864,0101000020110F0000408E6C4DDE825FC145DCCBECF4D95241,40.5198783874512,-74.2050933837891,Staten Island,NB,New Building,520309746,5169414,NB,84,false,4168,12/14/2017,12/14/2018 12:00,16,FINLAY AVENUE,503,SURF SIDE PROPERTIES INC,RESIDENTIAL: 1 & 2 FAMILY HOUSES,3,2
0101000020E6100000000000601D8D52C0000000208D424440,718836,0101000020110F00000605416BD9825FC1C45951E1F6D95241,40.5199317932129,-74.2049179077148,Staten Island,NB,New Building,520309755,5170178,NB,85,false,4857,12/14/2017,12/14/2018 12:00,12,FINLAY AVENUE,503,SURF SIDE PROPERTIES INC,RESIDENTIAL: 1 & 2 FAMILY HOUSES,3,2
0101000020E6100000000000202C8D52C00000004099424440,836792,0101000020110F000042822B79F2825FC19E313A6D04DA5241,40.5203018188477,-74.2058181762695,Staten Island,NB,New Building,520292772,5170382,NB,86,false,5654,6/28/2018,5/12/2019 12:00,29,FINLAY AVENUE,503,CPMG CUSTOM HOME BUILDERS,RESIDENTIAL: 1 & 2 FAMILY HOUSES,3,2
0101000020E6100000000000407D8D52C000000080C3424440,96200,0101000020110F00000E33B5457C835FC13ECD6EA133DA5241,40.5215911865234,-74.2107696533203,Staten Island,NB,New Building,520332462,5083345,NB,87,false,650,5/24/2018,5/24/2019 12:00,28,LATOURETTE STREET,503,ALKA CONTRACTING INC,UTILITY / MISCELLANEOUS,1,
0101000020E6100000000000E02C8E52C0000000A0C9424440,564324,0101000020110F00001FC5CA96A6845FC143EC4D793ADA5241,40.5217781066895,-74.2214889526367,Staten Island,NB,New Building,520140384,5161520,NB,88,false,3813,5/31/2018,5/19/2019 12:00,23,SAVONA COURT,503,PINA DEVELOPEMENT LLC,RESIDENTIAL: 1 & 2 FAMILY HOUSES,3,2
0101000020E6100000000000E02C8E52C0000000A0C9424440,564324,0101000020110F00001FC5CA96A6845FC143EC4D793ADA5241,40.5217781066895,-74.2214889526367,Staten Island,NB,New Building,520140393,5161519,NB,89,false,3813,5/31/2018,5/19/2019 12:00,27,SAVONA COURT,503,PINA DEVELOPEMENT LLC,RESIDENTIAL: 1 & 2 FAMILY HOUSES,3,2
0101000020E6100000000000E02C8E52C0000000A0C9424440,668220,0101000020110F00001FC5CA96A6845FC143EC4D793ADA5241,40.5217781066895,-74.2214889526367,Staten Island,NB,New Building,520140400,5161492,NB,90,false,4515,6/26/2018,6/26/2019 12:00,31,SAVONA COURT,503,CELLO BUILDERS INC,RESIDENTIAL: 1 & 2 FAMILY HOUSES,3,2
0101000020E6100000000000E02C8E52C0000000A0C9424440,668220,0101000020110F00001FC5CA96A6845FC143EC4D793ADA5241,40.5217781066895,-74.2214889526367,Staten Island,NB,New Building,520140419,5161491,NB,91,false,4515,6/26/2018,6/26/2019 12:00,35,SAVONA COURT,503,CELLO BUILDERS INC,RESIDENTIAL: 1 & 2 FAMILY HOUSES,3,2
0101000020E6100000000000E02C8E52C0000000A0C9424440,532800,0101000020110F00001FC5CA96A6845FC143EC4D793ADA5241,40.5217781066895,-74.2214889526367,Staten Island,NB,New Building,520140464,5161489,NB,92,false,3600,6/26/2018,6/26/2019 12:00,36,SAVONA COURT,503,CELLO BUILDERS INC,RESIDENTIAL: 1 & 2 FAMILY HOUSES,3,2
0101000020E6100000000000002D8E52C0000000E0CF424440,564324,0101000020110F0000D4B425CDA6845FC1E2F7EE7441DA5241,40.5219688415527,-74.2214965820312,Staten Island,NB,New Building,520140357,5161527,NB,93,false,3813,5/31/2018,5/19/2019 12:00,11,SAVONA COURT,503,PINA DEVELOPEMENT LLC,RESIDENTIAL: 1 & 2 FAMILY HOUSES,3,2
0101000020E6100000000000002D8E52C0000000E0CF424440,583416,0101000020110F0000D4B425CDA6845FC1E2F7EE7441DA5241,40.5219688415527,-74.2214965820312,Staten Island,NB,New Building,520140366,5161528,NB,94,false,3942,5/31/2018,5/19/2019 12:00,15,SAVONA COURT,503,PINA DEVELOPEMENT LLC,RESIDENTIAL: 1 & 2 FAMILY HOUSES,3,2
0101000020E6100000000000002D8E52C0000000E0CF424440,583416,0101000020110F0000D4B425CDA6845FC1E2F7EE7441DA5241,40.5219688415527,-74.2214965820312,Staten Island,NB,New Building,520140375,5161521,NB,95,false,3942,5/31/2018,5/19/2019 12:00,19,SAVONA COURT,503,PINA DEVELOPEMENT LLC,RESIDENTIAL: 1 & 2 FAMILY HOUSES,3,2
0101000020E6100000000000002D8E52C0000000E0CF424440,580012,0101000020110F0000D4B425CDA6845FC1E2F7EE7441DA5241,40.5219688415527,-74.2214965820312,Staten Island,NB,New Building,520201111,5161526,NB,96,false,3919,5/31/2018,5/19/2019 12:00,7,SAVONA COURT,503,PINA DEVELOPEMENT LLC,RESIDENTIAL: 1 & 2 FAMILY HOUSES,3,2
0101000020E6100000000000C0328E52C000000080D2424440,557516,0101000020110F000047C77C91B0845FC1563CBD6344DA5241,40.5220489501953,-74.2218475341797,Staten Island,NB,New Building,520140428,5161524,NB,97,false,3767,6/26/2018,6/26/2019 12:00,12,SAVONA COURT,503,CELLO BUILDERS INC,RESIDENTIAL: 1 & 2 FAMILY HOUSES,2,2
0101000020E6100000000000C0328E52C000000080D2424440,577348,0101000020110F000047C77C91B0845FC1563CBD6344DA5241,40.5220489501953,-74.2218475341797,Staten Island,NB,New Building,520140437,5161523,NB,98,false,3901,6/26/2018,6/26/2019 12:00,16,SAVONA COURT,503,CELLO BUILDERS INC,RESIDENTIAL: 1 & 2 FAMILY HOUSES,2,2
0101000020E6100000000000C0328E52C000000080D2424440,577052,0101000020110F000047C77C91B0845FC1563CBD6344DA5241,40.5220489501953,-74.2218475341797,Staten Island,NB,New Building,520140446,5161522,NB,99,false,3899,6/26/2018,6/26/2019 12:00,20,SAVONA,503,CELLO BUILDERS INC,RESIDENTIAL: 1 & 2 FAMILY HOUSES,2,2
0101000020E6100000000000C0328E52C000000080D2424440,516372,0101000020110F000047C77C91B0845FC1563CBD6344DA5241,40.5220489501953,-74.2218475341797,Staten Island,NB,New Building,520140455,5161488,NB,100,false,3489,6/26/2018,6/26/2019 12:00,24,SAVONA COURT,503,CELLO BUILDERS INC,RESIDENTIAL: 1 & 2 FAMILY HOUSES,3,2
0101000020E6100000000000C0328E52C000000080D2424440,585784,0101000020110F000047C77C91B0845FC1563CBD6344DA5241,40.5220489501953,-74.2218475341797,Staten Island,NB,New Building,520206731,5161525,NB,101,false,3958,6/26/2018,6/26/2019 12:00,8,SAVONA COURT,503,CELLO BUILDERS INC,RESIDENTIAL: 1 & 2 FAMILY HOUSES,2,1
0101000020E610000000000040E18A52C0000000C0D9424440,762200,0101000020110F00007B59699B0D7F5FC186D5657D4CDA5241,40.5222702026367,-74.1699981689453,Staten Island,NB,New Building,520195191,5164605,NB,102,false,5150,1/10/2018,1/10/2019 12:00,25,DISCALA LANE,503,PINA DEVELOPEMENT LLC,RESIDENTIAL: 1 & 2 FAMILY HOUSES,2,1
0101000020E610000000000060568F52C000000000F2424440,2323896,0101000020110F0000F04737EC9F865FC16B5C7A9567DA5241,40.5230102539062,-74.2396469116211,Staten Island,NB,New Building,520216409,5159544,NB,103,false,15702,8/14/2018,4/23/2019 12:00,4885,ARTHUR KILL ROAD,503,NICOLOSI BROS INC,MERCANTILE,1,
0101000020E610000000000060568F52C000000000F2424440,570688,0101000020110F0000F04737EC9F865FC16B5C7A9567DA5241,40.5230102539062,-74.2396469116211,Staten Island,NB,New Building,520216640,5159543,NB,104,false,3856,4/23/2018,4/23/2019 12:00,4895,ARTHUR KILL ROAD,503,NICOLOSI BROS INC,MERCANTILE,1,
0101000020E6100000000000C0158B52C0000000E0F5424440,469900,0101000020110F0000BE9D9AC8667F5FC149E9D3E96BDA5241,40.5231285095215,-74.1732025146484,Staten Island,NB,New Building,520279289,5082157,NB,105,false,3175,6/6/2018,1/3/2019 12:00,30,ZEPHYR AVENUE,503,JADE CONSTRUCTION AND CON,RESIDENTIAL: 1 & 2 FAMILY HOUSES,4,1
0101000020E610000000000000D38E52C000000080F9424440,100,0101000020110F0000942DE1C4C0855FC12E44ACF66FDA5241,40.5232391357422,-74.2316284179688,Staten Island,A1,ALT 1 Enlargement,500495822,5118310,A1,106,true,10000,1/25/2018,1/25/2019 12:00,200,BOSCOMBE AVENUE,503,GATEWAY CATHEDRAL INC,"ASSEMBLY (CHURCHES, CONCERT HALLS)",3,
0101000020E610000000000080338E52C0000000E00B434440,686276,0101000020110F000081659ED7B1845FC1A1756E7E84DA5241,40.5237998962402,-74.2218933105469,Staten Island,NB,New Building,520272357,5167354,NB,107,false,4637,6/4/2018,6/4/2019 12:00,171,PLEASANT PLAINS AVENUE,503,JAYDEN ESTATES INC,RESIDENTIAL: 1 & 2 FAMILY HOUSES,3,2
0101000020E610000000000020308E52C0000000400C434440,686276,0101000020110F0000761D071CAC845FC1D33BB1E984DA5241,40.523811340332,-74.2216873168945,Staten Island,NB,New Building,520272348,5169682,NB,108,false,4637,6/4/2018,6/4/2019 12:00,165,PLEASANT PLAINS AVENUE,503,JAYDEN ESTATES INC,RESIDENTIAL: 1 & 2 FAMILY HOUSES,3,2
0101000020E6100000000000809D8E52C0000000401B434440,153500,0101000020110F0000AD6BD8E465855FC1DB0B24AC95DA5241,40.5242691040039,-74.2283630371094,Staten Island,A1,ALT 1 Enlargement,520222367,5087096,A1,109,true,434,10/31/2017,10/31/2018 12:00,314,BOSCOMBE AVE,503,SERVIDIO INC,RESIDENTIAL: 1 & 2 FAMILY HOUSES,2,1
0101000020E6100000000000C03B8E52C00000008020434440,1024752,0101000020110F0000103210DBBF845FC1BA00CE899BDA5241,40.5244293212891,-74.2223968505859,Staten Island,NB,New Building,520322687,5170218,NB,110,false,6924,5/30/2018,2/19/2019 12:00,2172,SOUTH SERVICE ROAD,503,MAXIMUM CONTRACTING INC,RESIDENTIAL: 1 & 2 FAMILY HOUSES,2,2
0101000020E6100000000000A0B28D52C0000000C023434440,1059088,0101000020110F0000420563EFD6835FC1BB6F682B9FDA5241,40.524528503418,-74.2140274047852,Staten Island,NB,New Building,520311001,5085532,NB,111,false,7156,3/28/2018,3/1/2019 12:00,6233,AMBOY ROAD,503,CHAMPION INTERNATIONAL CO,RESIDENTIAL: 1 & 2 FAMILY HOUSES,3,2
0101000020E610000000000060CA8C52C0000000A02E434440,521700,0101000020110F0000A748636F4C825FC1B5720352ABDA5241,40.5248603820801,-74.1998519897461,Staten Island,NB,New Building,520327012,5170356,NB,112,false,3525,7/23/2018,3/14/2019 12:00,40,HERBERT STREET,503,MASTER BUILT HOMES INC,RESIDENTIAL: 1 & 2 FAMILY HOUSES,3,2
0101000020E6100000000000A0C98C52C0000000402F434440,616568,0101000020110F00006BAA41294B825FC167CCC804ACDA5241,40.5248794555664,-74.1998062133789,Staten Island,NB,New Building,520327021,5170357,NB,113,false,4166,7/23/2018,3/14/2019 12:00,44,HERBERT STREET,503,MASTER BUILT HOMES INC,RESIDENTIAL: 1 & 2 FAMILY HOUSES,3,2
0101000020E610000000000060DD8D52C0000000E033434440,470196,0101000020110F00008040DF8C1F845FC1BDCBB02FB1DA5241,40.5250205993652,-74.2166366577148,Staten Island,NB,New Building,520202520,5165043,NB,114,false,3177,4/6/2018,4/1/2019 12:00,149,DUNHAM STREET,503,SKEN SERVICES CORP,RESIDENTIAL: 1 & 2 FAMILY HOUSES,3,2
0101000020E6100000000000A0238B52C00000004042434440,424316,0101000020110F00000A8D085A7E7F5FC156AA713FC1DA5241,40.5254592895508,-74.1740493774414,Staten Island,NB,New Building,520293478,5165178,NB,115,false,2867,3/28/2018,3/12/2019 12:00,386,POILLON AVENUE,503,MP REALTY HOLDING CORP,RESIDENTIAL: 1 & 2 FAMILY HOUSES,3,2
0101000020E610000000000080218B52C0000000E047434440,44400,0101000020110F00000DA2FEBD7A7F5FC1CCF76588C7DA5241,40.5256309509277,-74.1739196777344,Staten Island,NB,New Building,520293487,5165179,NB,116,false,300,3/29/2018,3/12/2019 12:00,386G,POILLON AVENUE,503,MP REALTY HOLDING CORP,UTILITY / MISCELLANEOUS,1,
0101000020E6100000000000C0B48D52C0000000604D434440,727420,0101000020110F000040F06C8BDA835FC1DA209AADCDDA5241,40.5257987976074,-74.2141571044922,Staten Island,NB,New Building,520268013,5169723,NB,117,false,4915,6/5/2018,5/12/2019 12:00,41,IDAHO AVENUE,503,CPMG CUSTOM HOME BUILDERS,RESIDENTIAL: 1 & 2 FAMILY HOUSES,3,2
0101000020E610000000000060B78D52C00000004056434440,727420,0101000020110F00000F9AE200DF835FC14D6C3098D7DA5241,40.5260696411133,-74.2143173217773,Staten Island,NB,New Building,520268004,5170590,NB,118,false,4915,6/5/2018,5/12/2019 12:00,33,IDAHO AVENUE,503,CPMG CUSTOM HOME BUILDERS,RESIDENTIAL: 1 & 2 FAMILY HOUSES,3,2
0101000020E6100000000000C0C88C52C0000000805C434440,499648,0101000020110F00007B1CC5AC49825FC117C5EE93DEDA5241,40.5262603759766,-74.1997528076172,Staten Island,NB,New Building,520206660,5167961,NB,119,false,3376,5/31/2018,5/19/2019 12:00,38,MADERA STREET,503,PINA DEVELOPEMENT LLC,RESIDENTIAL: 1 & 2 FAMILY HOUSES,2,2
0101000020E6100000000000608D8A52C0000000C05E434440,236948,0101000020110F00002B0F0F237F7E5FC199888517E1DA5241,40.5263290405273,-74.1648788452148,Staten Island,NB,New Building,500696151,5159307,NB,120,false,1601,4/10/2018,4/1/2019 12:00,90,BAYVIEW TERRACE,503,SKEN SERVICES CORP,RESIDENTIAL 1-2 FAMILY HOUSES,2,1
0101000020E610000000000000CA8C52C00000002060434440,788692,0101000020110F0000897952CC4B825FC11F87D3A0E2DA5241,40.5263710021973,-74.1998291015625,Staten Island,NB,New Building,520318745,5169727,NB,121,false,5329,3/29/2018,3/20/2019 12:00,32,MADERA STREET,503,M.S.B. DEVELOPMENT CO INC,RESIDENTIAL: 1 & 2 FAMILY HOUSES,3,2
0101000020E6100000000000C0D18C52C00000006064434440,777592,0101000020110F0000458758F658825FC1692E7F60E7DA5241,40.5265007019043,-74.2003021240234,Staten Island,NB,New Building,520318736,5082838,NB,122,false,5254,3/29/2018,3/20/2019 12:00,28,MADERA STREET,503,M.S.B. DEVELOPMENT CO INC,RESIDENTIAL: 1 & 2 FAMILY HOUSES,3,2
0101000020E6100000000000A0CD8C52C0000000A06A434440,692788,0101000020110F0000FFA09FF451825FC1BD78405CEEDA5241,40.5266914367676,-74.2000503540039,Staten Island,NB,New Building,520318727,5169728,NB,123,false,4681,3/29/2018,3/20/2019 12:00,24,MADERA STREET,503,M.S.B. DEVELOPMENT CO INC,RESIDENTIAL: 1 & 2 FAMILY HOUSES,3,2
0101000020E610000000000000CD8D52C00000008071434440,479520,0101000020110F0000179756BC03845FC19CCBC90AF6DA5241,40.5269012451172,-74.2156372070312,Staten Island,NB,New Building,500908155,5158409,NB,124,false,3240,3/28/2018,3/28/2019 12:00,113,BLOOMINGDALE ROAD,503,GEMSTAR CONSTRUCTION CORP,RESIDENTIAL 1-2 FAMILY HOUSES,3,2
0101000020E6100000000000603B8B52C0000000C084434440,459984,0101000020110F0000117586B1A67F5FC1737C1F8D0BDB5241,40.5274887084961,-74.1754989624023,Staten Island,NB,New Building,520278119,5169359,NB,125,false,3108,3/8/2018,2/27/2019 12:00,300,POILLON AVENUE,503,JOE CINA & SONS CONTRACT,RESIDENTIAL: 1 & 2 FAMILY HOUSES,2,2
0101000020E610000000000040378B52C00000002087434440,37296,0101000020110F0000C98ECDAF9F7F5FC1F3B47A340EDB5241,40.5275611877441,-74.1752471923828,Staten Island,NB,New Building,520278128,5169360,NB,126,false,252,1/29/2018,1/10/2019 12:00,300 GARAGE,POILLON AVENUE,503,JOE CINA & SONS CONTRACT,UTILITY / MISCELLANEOUS,1,0
0101000020E610000000000060F78C52C0000000A08F434440,496688,0101000020110F0000975E44DF98825FC163ABDDB317DB5241,40.5278205871582,-74.2025985717773,Staten Island,NB,New Building,520285806,5169024,NB,127,false,3356,6/4/2018,5/31/2019 12:00,52,FOSTER ROAD,503,JEM BUILDING CORP,RESIDENTIAL: 1 & 2 FAMILY HOUSES,3,2
0101000020E6100000000000A03A8F52C0000000E092434440,748880,0101000020110F000058695BC970865FC1112584551BDB5241,40.5279197692871,-74.2379531860352,Staten Island,NB,New Building,520053003,5155332,NB,128,false,5060,1/23/2018,1/2/2019 12:00,3139,VETERANS ROAD WEST,503,MINELLI CONSTRUCTION CO,BUSINESS,1,
0101000020E6100000000000406C8D52C0000000209B434440,769600,0101000020110F000021DB65655F835FC10F65678D24DB5241,40.5281715393066,-74.2097320556641,Staten Island,NB,New Building,520228968,5166786,NB,129,false,5200,5/2/2018,4/30/2019 12:00,528,ALBOURNE AVENUE,503,SARCONA MASONRY CONTRACTI,RESIDENTIAL: 1 & 2 FAMILY HOUSES,3,2
0101000020E6100000000000C00D8C52C0000000C09C434440,537240,0101000020110F00003A555C090C815FC127363B5E26DB5241,40.5282211303711,-74.1883392333984,Staten Island,NB,New Building,500587750,5154342,NB,130,false,3630,7/20/2018,4/26/2019 12:00,677,EYLANDT STREET,503,V. DISALVO CONTRACTING CO,RESIDENTIAL 1-2 FAMILY HOUSES,2,1
0101000020E6100000000000E0338D52C0000000A09E434440,438228,0101000020110F0000009031A3FF825FC1BB2F927628DB5241,40.5282783508301,-74.2062911987305,Staten Island,NB,New Building,520239812,5863658,NB,131,false,2961,5/21/2018,5/18/2019 12:00,432,ALBOURNE AVENUE,503,J. MANGONE CONSTRUCT CORP,RESIDENTIAL: 1 & 2 FAMILY HOUSES,3,2
0101000020E610000000000060568A52C000000020AC434440,83830,0101000020110F0000CC10C3B6217E5FC110113B8C37DB5241,40.5286903381348,-74.1615219116211,Staten Island,A1,ALT 1 Enlargement,520138770,5070187,A1,132,true,832,4/5/2018,2/1/2019 12:00,11,SANDGAP STREET,503,CLAIRE CONSTRUCTION CORP,RESIDENTIAL: 1 & 2 FAMILY HOUSES,2,1
0101000020E6100000000000A06D8A52C000000060C4434440,38776,0101000020110F0000003AD534497E5FC154B0F9A452DB5241,40.5294303894043,-74.1629409790039,Staten Island,NB,New Building,520316097,5170975,NB,133,false,262,7/20/2018,4/25/2019 12:00,193GAR,BATHGATE  STREET,503,PALERMO CONSTRUCTION CORP,UTILITY / MISCELLANEOUS,1,
0101000020E610000000000000718A52C0000000A0C8434440,614496,0101000020110F00000C826CF04E7E5FC1A18CB36457DB5241,40.5295600891113,-74.1631469726562,Staten Island,NB,New Building,520316088,5170974,NB,134,false,4152,7/20/2018,6/14/2019 12:00,193,BATHGATE  STREET,503,PALERMO CONSTRUCTION CORP,RESIDENTIAL: 1 & 2 FAMILY HOUSES,3,2
0101000020E610000000000060648A52C000000040CC434440,637140,0101000020110F0000CDEF8B7E397E5FC18360A5715BDB5241,40.529670715332,-74.1623764038086,Staten Island,NB,New Building,520311083,5169897,NB,135,false,4305,5/3/2018,4/28/2019 12:00,169,BATHGATE ST,503,INTEGRATED DESIGN AND CO,RESIDENTIAL: 1 & 2 FAMILY HOUSES,2,2
0101000020E610000000000060648A52C000000040CC434440,44400,0101000020110F0000CDEF8B7E397E5FC18360A5715BDB5241,40.529670715332,-74.1623764038086,Staten Island,NB,New Building,520315631,5170240,NB,136,false,300,5/3/2018,4/28/2019 12:00,169 GARAGE,BATHGATE STREET,503,INTEGRATED DESIGN AND CO,UTILITY / MISCELLANEOUS,1,0
0101000020E6100000000000C0628A52C000000080CD434440,44400,0101000020110F0000A2C3EDBB367E5FC11CA936D75CDB5241,40.5297088623047,-74.1622772216797,Staten Island,NB,New Building,520315640,5170241,NB,137,false,300,5/3/2018,4/28/2019 12:00,165 GARAGE,BATHGATE STREET,503,INTEGRATED DESIGN AND CO,UTILITY / MISCELLANEOUS,1,0
0101000020E610000000000060648A52C0000000C0D3434440,637140,0101000020110F0000CDEF8B7E397E5FC128DC0DD363DB5241,40.529899597168,-74.1623764038086,Staten Island,NB,New Building,520311092,5169896,NB,138,false,4305,5/3/2018,4/28/2019 12:00,165,BATHGATE ST,503,INTEGRATED DESIGN AND CO,RESIDENTIAL: 1 & 2 FAMILY HOUSES,2,2
0101000020E610000000000020098D52C000000060D8434440,37000,0101000020110F0000C254B505B7825FC1E8390FFE68DB5241,40.5300407409668,-74.2036819458008,Staten Island,NB,New Building,520324051,5170412,NB,139,false,250,4/11/2018,4/11/2019 12:00,341 GAR,ASHLAND AVE,503,A. FONTANA & SONS LLC,UTILITY / MISCELLANEOUS,1,0
0101000020E6100000000000E0088D52C0000000E0DF434440,654456,0101000020110F00005775FF98B6825FC1E2BD7A5F71DB5241,40.5302696228027,-74.2036666870117,Staten Island,NB,New Building,520324042,5084750,NB,140,false,4422,4/11/2018,10/29/2018 12:00,341,ASHLAND AVE,503,A. FONTANA & SONS LLC,RESIDENTIAL: 1 & 2 FAMILY HOUSES,2,1
0101000020E6100000000000A0E68C52C0000000E0E3434440,395000,0101000020110F000012E6AA6B7C825FC1B8D9B4D775DB5241,40.5303916931152,-74.2015762329102,Staten Island,A1,ALT 1 Enlargement,520333675,5084068,A1,141,true,1332,8/15/2018,4/7/2019 12:00,286,ASHLAND AVE,503,MOUNTAINTOP CONSTRUCTION,RESIDENTIAL: 1 & 2 FAMILY HOUSES,3,1
0101000020E6100000000000C0B98E52C000000020E6434440,14605084,0101000020110F0000180920E195855FC162C5555B78DB5241,40.530460357666,-74.2300872802734,Staten Island,NB,New Building,520270750,5164796,NB,142,false,98683,8/20/2018,8/20/2019 12:00,165,BRICKTOWN WAY,503,BRIDLE ESTATES INC,"ASSEMBLY: THEATERS, CONCERT HALLS",2,
0101000020E6100000000000606A8A52C0000000C00C444440,15000,0101000020110F0000A8E198AF437E5FC10E3C6584A3DB5241,40.5316390991211,-74.1627426147461,Staten Island,A1,ALT 1 Enlargement,520132909,5069732,A1,143,true,544,2/13/2018,2/13/2019 12:00,1633,ARDEN AVENUE,503,PUMA CONSTRUCTION CORP,RESIDENTIAL: 1 & 2 FAMILY HOUSES,1,1
0101000020E6100000000000402A8A52C00000004018444440,637732,0101000020110F0000CC885EC3D67D5FC136F21E5EB0DB5241,40.5319900512695,-74.1588287353516,Staten Island,NB,New Building,520313410,5069633,NB,144,false,4309,4/19/2018,4/17/2019 12:00,500,KING STREET,503,AL-RICH BUILDERS LLC,RESIDENTIAL: 1 & 2 FAMILY HOUSES,3,1
0101000020E610000000000040C98A52C0000000401A444440,848928,0101000020110F00000C9235D7E47E5FC1ADB13F9AB2DB5241,40.5320510864258,-74.1685333251953,Staten Island,NB,New Building,520046637,5169577,NB,145,false,5736,7/30/2018,10/30/2018 12:00,121,WEAVER STREET,503,WALLACE AVENUE CONSTR LLC,RESIDENTIAL: 1 & 2 FAMILY HOUSES,2,1
0101000020E6100000000000C02E8A52C0000000201E444440,637732,0101000020110F0000323E2868DE7D5FC1D485BFEEB6DB5241,40.532169342041,-74.1591033935547,Staten Island,NB,New Building,520313401,5170105,NB,146,false,4309,4/19/2018,4/17/2019 12:00,496,KING STREET,503,AL-RICH BUILDERS LLC,RESIDENTIAL: 1 & 2 FAMILY HOUSES,3,1
0101000020E6100000000000C0118C52C00000000023444440,12500,0101000020110F0000CC4BBAD412815FC1E2885061BCDB5241,40.5323181152344,-74.1885833740234,Staten Island,A1,ALT 1 Enlargement,500555482,5082431,A1,147,true,1014,1/11/2018,12/12/2018 12:00,33,STECHER STREET,503,OUR ISLAND PROPERTY MANAG,RESIDENTIAL 1-2 FAMILY HOUSES,3,2
0101000020E6100000000000408A8A52C00000006024444440,113120,0101000020110F000088A62DD4797E5FC10E87A7EABDDB5241,40.5323600769043,-74.1646881103516,Staten Island,A1,ALT 1 Enlargement,520278707,5069888,A1,148,true,527,4/6/2018,2/15/2019 12:00,254,SHIRLEY AVENUE,503,"DESIGN BUILD SI, INC",RESIDENTIAL: 1 & 2 FAMILY HOUSES,2,1
0101000020E6100000000000E0628B52C00000006034444440,835164,0101000020110F0000F857C6C9E97F5FC176B7B7CBCFDB5241,40.5328483581543,-74.1779098510742,Staten Island,NB,New Building,520204804,5082206,NB,149,false,5643,4/16/2018,1/3/2019 12:00,94,POILLON AVENUE,503,JADE CONSTRUCTION AND CON,RESIDENTIAL: 1 & 2 FAMILY HOUSES,3,1
0101000020E610000000000000CE8B52C0000000A03C444440,611684,0101000020110F00007BCB32C09F805FC18666C703D9DB5241,40.5331001281738,-74.1844482421875,Staten Island,NB,New Building,520125052,5158328,NB,150,false,4133,5/15/2018,5/15/2019 12:00,54,SERENA COURT,503,SAVOY DEVELOPMENT INC,RESIDENTIAL: 1 & 2 FAMILY HOUSES,3,2
0101000020E610000000000040CB8B52C0000000E03E444440,646908,0101000020110F0000F53162149B805FC120FB6E87DBDB5241,40.5331687927246,-74.1842803955078,Staten Island,NB,New Building,520125061,5158327,NB,151,false,4371,5/15/2018,5/15/2019 12:00,58,SERENA COURT,503,SAVOY DEVELOPMENT INC,RESIDENTIAL: 1 & 2 FAMILY HOUSES,3,2
0101000020E610000000000040018D52C00000008045444440,539519,0101000020110F0000515754A5A9825FC10981A4EEE2DB5241,40.5333709716797,-74.2032012939453,Staten Island,A1,ALT 1 Enlargement,520333112,5084128,A1,152,true,2564,8/13/2018,2/5/2019 12:00,263,FOSTER ROAD,503,ALKA CONTRACTING INC,RESIDENTIAL: 1 & 2 FAMILY HOUSES,2,2
0101000020E610000000000020CF8B52C00000002046444440,546120,0101000020110F0000D33865A9A1805FC1AFAA6FA1E3DB5241,40.533390045166,-74.1845169067383,Staten Island,NB,New Building,520125070,5170006,NB,153,false,3690,5/15/2018,5/15/2019 12:00,50,SERENA COURT,503,SAVOY DEVELOPMENT INC,RESIDENTIAL: 1 & 2 FAMILY HOUSES,3,2
0101000020E610000000000020D18B52C0000000004B444440,506752,0101000020110F00001E34140FA5805FC1C12E0714E9DB5241,40.5335388183594,-74.1846389770508,Staten Island,NB,New Building,520080313,5158329,NB,154,false,3424,5/15/2018,5/15/2019 12:00,46,SERENA COURT,503,SAVOY DEVELOPMENT INC,RESIDENTIAL: 1 & 2 FAMILY HOUSES,2,2
0101000020E6100000000000E0F58B52C0000000004F444440,564176,0101000020110F0000807D837BE3805FC122954F8CEDDB5241,40.5336608886719,-74.186882019043,Staten Island,NB,New Building,520272482,5167257,NB,155,false,3812,3/14/2018,2/27/2019 12:00,5308,AMBOY ROAD,503,J. SMITH CONSTRUCTION INC,RESIDENTIAL: 1 & 2 FAMILY HOUSES,2,2
0101000020E6100000000000E0F58B52C0000000004F444440,29600,0101000020110F0000807D837BE3805FC122954F8CEDDB5241,40.5336608886719,-74.186882019043,Staten Island,NB,New Building,520272507,5167257,NB,156,false,200,3/14/2018,2/27/2019 12:00,5308,AMBOY ROAD,503,J. SMITH CONSTRUCTION INC,UTILITY / MISCELLANEOUS,1,0
0101000020E610000000000060CA8B52C0000000A051444440,698560,0101000020110F000006A4E59799805FC190623F7BF0DB5241,40.5337409973145,-74.1842269897461,Staten Island,NB,New Building,520125089,5158340,NB,157,false,4720,5/15/2018,5/15/2019 12:00,45,SERENA COURT,503,SAVOY DEVELOPMENT INC,RESIDENTIAL: 1 & 2 FAMILY HOUSES,2,2
0101000020E610000000000040F98B52C0000000E053444440,29600,0101000020110F00008BC51A37E9805FC19F8AE8FEF2DB5241,40.5338096618652,-74.1870880126953,Staten Island,NB,New Building,520272491,5169592,NB,158,false,200,3/8/2018,10/18/2018 12:00,5304,AMBOY ROAD,503,J. SMITH CONSTRUCTION INC,UTILITY / MISCELLANEOUS,1,0
0101000020E610000000000040F98B52C0000000E053444440,564176,0101000020110F00008BC51A37E9805FC19F8AE8FEF2DB5241,40.5338096618652,-74.1870880126953,Staten Island,NB,New Building,520299588,5169592,NB,159,false,3812,3/6/2018,10/18/2018 12:00,5304,AMBOY ROAD,503,J. SMITH CONSTRUCTION INC,RESIDENTIAL: 1 & 2 FAMILY HOUSES,2,2
0101000020E610000000000000E18B52C0000000C05A444440,15000,0101000020110F0000B31E3106C0805FC1FC57A7ADFADB5241,40.5340194702148,-74.1856079101562,Staten Island,A1,ALT 1 Enlargement,520214740,5082287,A1,160,true,2558,6/2/2018,7/4/2019 12:00,5264,AMBOY ROAD,503,AVID CONSTRUCTION INC,RESIDENTIAL: 1 & 2 FAMILY HOUSES,2,2
0101000020E6100000000000808A8A52C00000002069444440,659932,0101000020110F0000F185E3407A7E5FC1F191F5BD0ADC5241,40.5344581604004,-74.1647033691406,Staten Island,NB,New Building,520287939,5169526,NB,161,false,4459,5/7/2018,5/1/2019 12:00,1515,ARDEN AVENUE,503,RAY-AN ESTATES INC,RESIDENTIAL: 1 & 2 FAMILY HOUSES,3,1
0101000020E6100000000000A0D48B52C00000008069444440,582972,0101000020110F0000DE6B0601AB805FC130B63C290BDC5241,40.5344696044922,-74.1848526000977,Staten Island,NB,New Building,520075392,5158322,NB,162,false,3939,5/15/2018,5/15/2019 12:00,5230,AMBOY ROAD,503,SAVOY DEVELOPMENT INC,RESIDENTIAL: 1 & 2 FAMILY HOUSES,3,2
0101000020E610000000000040168A52C0000000A076444440,310710,0101000020110F0000F0B788CAB47D5FC1BD9FF9D319DC5241,40.5348701477051,-74.1576080322266,Staten Island,A1,ALT 1 Enlargement,520330044,5069244,A1,163,true,1638,6/26/2018,10/29/2018 12:00,337,RETFORD AVENUE,503,L & J MASONRY LLC,RESIDENTIAL: 1 & 2 FAMILY HOUSES,1,1
0101000020E610000000000020398A52C0000000A087444440,83400,0101000020110F0000BDF5A307F07D5FC13FBF49D32CDC5241,40.5353889465332,-74.1597366333008,Staten Island,A1,ALT 1 Enlargement,520104574,5069281,A1,164,true,1821,6/28/2018,5/12/2019 12:00,66,SHIRLEY AVENUE,503,DAMIAN CONTRACTING PL CO,RESIDENTIAL: 1 & 2 FAMILY HOUSES,2,1
0101000020E6100000000000E0198A52C00000002095444440,658008,0101000020110F000065DFD5F2BA7D5FC128895BE93BDC5241,40.5358009338379,-74.157829284668,Staten Island,NB,New Building,520234782,5069185,NB,165,false,4446,3/6/2018,3/1/2019 12:00,301,LYNDALE AVENUE,503,BRIDLE ESTATES INC,RESIDENTIAL: 1 & 2 FAMILY HOUSES,3,1
0101000020E610000000000000FA8C52C00000006096444440,318720,0101000020110F00006808BA549D825FC1B231F54E3DDC5241,40.5358390808105,-74.2027587890625,Staten Island,A1,ALT 1 Enlargement,520332881,5084258,A1,166,true,1488,7/12/2018,12/22/2018 12:00,891,IONIA AVENUE,503,FREDERICKSEN CONTRACTING,RESIDENTIAL: 1 & 2 FAMILY HOUSES,2,2
0101000020E6100000000000808D8952C0000000A09B444440,450364,0101000020110F00003F5AEC81CC7C5FC13E87E12C43DC5241,40.5359992980957,-74.1492614746094,Staten Island,NB,New Building,520327502,5068490,NB,167,false,3043,5/23/2018,1/30/2019 12:00,55,GROTON STREET,503,"WAHLER PLACE,LLC",RESIDENTIAL: 1 & 2 FAMILY HOUSES,3,1
0101000020E610000000000000438A52C0000000E0A3444440,712324,0101000020110F000077EEB3CD007E5FC118A00D654CDC5241,40.5362510681152,-74.1603393554688,Staten Island,NB,New Building,520305303,5169884,NB,168,false,4813,6/1/2018,5/28/2019 12:00,242,RETFORD AVENUE,503,PROFESSIONAL GRADE BUILD,RESIDENTIAL: 1 & 2 FAMILY HOUSES,2,1
0101000020E610000000000000A98B52C000000020A5444440,430088,0101000020110F0000B0A20DE760805FC110E6A7CA4DDC5241,40.5362892150879,-74.1821899414062,Staten Island,NB,New Building,520266293,5166716,NB,169,false,2906,2/13/2018,12/12/2018 12:00,76,TENAFLY PLACE,503,OUR ISLAND PROPERTY MANAG,RESIDENTIAL: 1 & 2 FAMILY HOUSES,3,2
0101000020E610000000000060A68B52C000000020A6444440,397824,0101000020110F0000DFF897715C805FC175F4BCE84EDC5241,40.536319732666,-74.1820297241211,Staten Island,NB,New Building,520266284,5166714,NB,170,false,2688,1/19/2018,12/12/2018 12:00,72,TENAFLY PLACE,503,OUR ISLAND PROPERTY MANAG,RESIDENTIAL: 1 & 2 FAMILY HOUSES,3,2
0101000020E6100000000000E0FB8C52C000000020A7444440,33152,0101000020110F0000FB130E84A0825FC1670BD20650DC5241,40.5363502502441,-74.2028732299805,Staten Island,NB,New Building,520277913,5169378,NB,171,false,224,5/8/2018,5/8/2019 12:00,865GAR,LAMONT AVENUE,503,CPMG CUSTOM HOME BUILDERS,UTILITY / MISCELLANEOUS,1,
0101000020E6100000000000E0FB8C52C000000020A7444440,590224,0101000020110F0000FB130E84A0825FC1670BD20650DC5241,40.5363502502441,-74.2028732299805,Staten Island,NB,New Building,520278486,5169376,NB,172,false,3988,5/8/2018,5/8/2019 12:00,865,LAMONT AVE,503,CPMG CUSTOM HOME BUILDERS,RESIDENTIAL: 1 & 2 FAMILY HOUSES,3,2
0101000020E610000000000000AC8B52C000000000C2444440,819624,0101000020110F00009D1B94FF65805FC1A352550F6EDC5241,40.5371704101562,-74.182373046875,Staten Island,NB,New Building,520228897,5170962,NB,173,false,5538,3/14/2018,3/3/2019 12:00,137,BENNETT AVENUE,503,JAL CONTRACTING LLC,RESIDENTIAL: 1 & 2 FAMILY HOUSES,3,1
0101000020E610000000000020748C52C000000080CC444440,170940,0101000020110F0000EF3349EEB9815FC100313ECB79DC5241,40.5374908447266,-74.1945877075195,Staten Island,NB,New Building,520281631,5167012,NB,174,false,1155,7/12/2018,7/12/2019 12:00,699 G,HUGUENOT AVENUE,503,BONOMO & SONS INC,UTILITY / MISCELLANEOUS,1,
0101000020E6100000000000E0ED8952C000000020CD444440,60000,0101000020110F00001947CC35707D5FC12B2B0C7E7ADC5241,40.5375099182129,-74.155143737793,Staten Island,A1,ALT 1 Enlargement,500574103,5067937,A1,175,true,1084,8/9/2018,9/11/2018 12:00,210,THORNYCROFT AVENUE,503,H & H RESTORATION CORP,RESIDENTIAL 1-2 FAMILY HOUSES,2,1
0101000020E6100000000000406F8C52C0000000C0CD444440,568616,0101000020110F00006DAF6EA6B1815FC1A828DA307BDC5241,40.5375289916992,-74.1942901611328,Staten Island,NB,New Building,520281613,5167010,NB,176,false,3842,7/12/2018,7/12/2019 12:00,703,HUGUENOT AVENUE,503,BONOMO & SONS INC,RESIDENTIAL: 1 & 2 FAMILY HOUSES,3,2
0101000020E610000000000040708C52C000000000D2444440,568616,0101000020110F0000112D4659B3815FC159A3B9F07FDC5241,40.5376586914062,-74.1943511962891,Staten Island,NB,New Building,520270689,5169575,NB,177,false,3842,7/12/2018,7/12/2019 12:00,695,HUGUENOT AVENUE,503,BONOMO & SONS INC,RESIDENTIAL: 1 & 2 FAMILY HOUSES,3,2
0101000020E6100000000000606A8C52C000000000D3444440,630480,0101000020110F0000EA2A945EA9815FC1FC30D00E81DC5241,40.5376892089844,-74.1939926147461,Staten Island,NB,New Building,520281622,5167011,NB,178,false,4260,7/12/2018,7/12/2019 12:00,699,HUGUENOT AVENUE,503,BONOMO & SONS INC,RESIDENTIAL: 1 & 2 FAMILY HOUSES,3,2
0101000020E6100000000000A07D8C52C000000040DC444440,1462388,0101000020110F00008B5D4811CA815FC1036422658BDC5241,40.537971496582,-74.1951675415039,Staten Island,NB,New Building,520222027,5169645,NB,179,false,9881,1/25/2018,1/25/2019 12:00,678,HUGUENOT AVENUE,503,ARBUTUS HYLAN REALTY CORP,RESIDENTIAL: 1 & 2 FAMILY HOUSES,3,2
0101000020E610000000000080C28B52C000000020E1444440,473748,0101000020110F000095A684378C805FC1EC51D2D790DC5241,40.5381202697754,-74.1837463378906,Staten Island,NB,New Building,520327450,5170430,NB,180,false,3201,7/18/2018,7/18/2019 12:00,54,BUFFINGTON AVENUE,503,3584 CONSTRUCTION CORP,RESIDENTIAL: 1 & 2 FAMILY HOUSES,3,2
0101000020E6100000000000E0C08B52C000000020E2444440,452880,0101000020110F00006A7AE67489805FC1BF60E9F591DC5241,40.5381507873535,-74.1836471557617,Staten Island,NB,New Building,520327441,5170431,NB,181,false,3060,7/18/2018,7/18/2019 12:00,50,BUFFINGTON AVENUE,503,3584 CONSTRUCTION CORP,RESIDENTIAL: 1 & 2 FAMILY HOUSES,3,2
0101000020E6100000000000804C8C52C0000000A0E9444440,494764,0101000020110F00005461AE9F76815FC1196097579ADC5241,40.5383796691895,-74.1921691894531,Staten Island,NB,New Building,520297410,5167124,NB,182,false,3343,5/3/2018,4/28/2019 12:00,216,NIPPON AVENUE,503,BEYER CONSTRUCTION CORP,RESIDENTIAL: 1 & 2 FAMILY HOUSES,3,2
0101000020E610000000000040808A52C0000000E0EF444440,40000,0101000020110F00001ABEC2D7687E5FC18BCEA953A1DC5241,40.5385704040527,-74.1640777587891,Staten Island,A1,ALT 1 Enlargement,520316239,5068912,A1,183,true,162,3/2/2018,2/7/2019 12:00,423,SYCAMORE STREET,503,NILSEN CONTRACTING INC,RESIDENTIAL: 1 & 2 FAMILY HOUSES,3,1
0101000020E610000000000000F58E52C0000000E0F1444440,2180040,0101000020110F000072DD7F85FA855FC1A9F0D88FA3DC5241,40.538631439209,-74.2337036132812,Staten Island,NB,New Building,520311653,5166441,NB,184,false,14730,4/25/2018,4/1/2019 12:00,15,STORER AVENUE,503,G.FIORE CONCRETE & CONST,STORAGE: LOW HAZARD,2,0
0101000020E6100000000000C0018E52C000000020F2444440,317904,0101000020110F0000C5BA3D565D845FC152D75ED7A3DC5241,40.5386390686035,-74.2188568115234,Staten Island,NB,New Building,520240551,5165060,NB,185,false,2148,10/25/2017,10/25/2018 12:00,43,JADE COURT,503,TCS CONTRACTING INC,RESIDENTIAL: 1 & 2 FAMILY HOUSES,2,1
0101000020E610000000000040028E52C000000080F4444440,317904,0101000020110F00009679A92F5E845FC14901D77EA6DC5241,40.5387115478516,-74.2188873291016,Staten Island,NB,New Building,520240542,5165059,NB,186,false,2148,10/25/2017,10/25/2018 12:00,41,JADE COURT,503,TCS CONTRACTING INC,RESIDENTIAL: 1 & 2 FAMILY HOUSES,2,1
0101000020E610000000000000548C52C0000000C0F4444440,789432,0101000020110F0000A88FFE5C83815FC193ED5CC6A6DC5241,40.5387191772461,-74.192626953125,Staten Island,NB,New Building,520297401,5169576,NB,187,false,5334,5/3/2018,4/28/2019 12:00,212,NIPPON AVENUE,503,BEYER CONSTRUCTION CORP,RESIDENTIAL: 1 & 2 FAMILY HOUSES,3,2
0101000020E610000000000040878D52C0000000C0F9444440,363192,0101000020110F00007D1B20428D835FC11FD3D35CACDC5241,40.5388717651367,-74.2113800048828,Staten Island,NB,New Building,520317531,5170286,NB,188,false,2454,5/23/2018,1/26/2019 12:00,1018,STAFFORD AVE,503,MADONIA DEVELOPMENT CORP,RESIDENTIAL: 1 & 2 FAMILY HOUSES,2,1
0101000020E610000000000060868D52C0000000C0F9444440,363192,0101000020110F00008C8DA3C58B835FC11FD3D35CACDC5241,40.5388717651367,-74.2113265991211,Staten Island,NB,New Building,520317522,5170287,NB,189,false,2454,5/23/2018,1/26/2019 12:00,1016,STAFFORD AVE,503,MADONIA DEVELOPMENT CORP,RESIDENTIAL: 1 & 2 FAMILY HOUSES,2,1
0101000020E610000000000000858D52C000000000FA444440,363192,0101000020110F0000CA40BB6F89835FC19DCA59A4ACDC5241,40.5388793945312,-74.2112426757812,Staten Island,NB,New Building,520317513,5170288,NB,190,false,2454,5/23/2018,1/26/2019 12:00,1012,STAFFORD AVE,503,MADONIA DEVELOPMENT CORP,RESIDENTIAL: 1 & 2 FAMILY HOUSES,2,1
0101000020E610000000000040848D52C000000060FA444440,370888,0101000020110F000090A2992988835FC1D4BEA20FADDC5241,40.538890838623,-74.2111968994141,Staten Island,NB,New Building,520317504,5170289,NB,191,false,2506,5/23/2018,1/26/2019 12:00,1010,STAFFORD AVE,503,MADONIA DEVELOPMENT CORP,RESIDENTIAL: 1 & 2 FAMILY HOUSES,2,1
0101000020E6100000000000204E8952C00000008002454440,342916,0101000020110F00009E9FD3DB607C5FC1A2E62524B6DC5241,40.5391387939453,-74.145393371582,Staten Island,NB,New Building,520313651,5169845,NB,192,false,2317,1/25/2018,1/25/2019 12:00,206,WIMAN AVENUE,503,ARBUTUS HYLAN REALTY CORP,RESIDENTIAL: 1 & 2 FAMILY HOUSES,3,2
0101000020E610000000000000428952C0000000C006454440,467976,0101000020110F000031CC5E434C7C5FC112DC0CE4BADC5241,40.5392684936523,-74.1446533203125,Staten Island,NB,New Building,520145030,5068200,NB,193,false,3162,5/11/2018,2/19/2019 12:00,219,WIMAN AVENUE,503,MAXIMUM CONTRACTING INC,RESIDENTIAL: 1 & 2 FAMILY HOUSES,3,2
0101000020E6100000000000A0498952C00000008007454440,29600,0101000020110F000038EA0937597C5FC165179FBABBDC5241,40.5392913818359,-74.1451187133789,Staten Island,NB,New Building,520305777,5169846,NB,194,false,200,2/12/2018,2/8/2019 12:00,206GAR,WIMAN AVENUE,503,ARBUTUS HYLAN REALTY CORP,UTILITY / MISCELLANEOUS,1,
0101000020E6100000000000007E8C52C0000000000D454440,214691,0101000020110F0000A92C59B4CA815FC1405D25E0C1DC5241,40.5394592285156,-74.1951904296875,Staten Island,A1,ALT 1 Enlargement,520293450,5081565,A1,195,true,1585,8/1/2018,7/19/2019 12:00,277,RAMONA AVENUE,503,F-INT LLC,RESIDENTIAL: 1 & 2 FAMILY HOUSES,2,1
0101000020E610000000000020618A52C0000000A010454440,105000,0101000020110F000077974FF9337E5FC1056A3EEDC5DC5241,40.5395698547363,-74.1621780395508,Staten Island,A1,ALT 1 Enlargement,520214624,5068828,A1,196,true,3574,2/13/2018,12/27/2018 12:00,357,SYCAMORE STREET,503,MORNINGSTAR BUILDING CORP,RESIDENTIAL: 1 & 2 FAMILY HOUSES,2,1
0101000020E610000000000080BF8B52C0000000801A454440,704184,0101000020110F0000A82DFE1E87805FC1E13873F6D0DC5241,40.5398712158203,-74.1835632324219,Staten Island,NB,New Building,520284031,5169146,NB,197,false,4758,6/6/2018,5/12/2019 12:00,133,NORTH RAILROAD STREET,503,CPMG CUSTOM HOME BUILDERS,RESIDENTIAL: 1 & 2 FAMILY HOUSES,2,2
0101000020E610000000000080BE8952C0000000601E454440,491212,0101000020110F0000C2662BBD1F7D5FC1CA2C144BD5DC5241,40.5399894714355,-74.1522521972656,Staten Island,NB,New Building,520319129,5067707,NB,198,false,3319,7/20/2018,3/17/2019 12:00,98,WILLIAM AVENUE,503,AMERICAN HOME BUILDING AN,RESIDENTIAL: 1 & 2 FAMILY HOUSES,2,2
0101000020E610000000000080988952C00000004024454440,546416,0101000020110F000052C02E31DF7C5FC19B1FE8DBDBDC5241,40.540168762207,-74.1499328613281,Staten Island,NB,New Building,520337573,5170428,NB,199,false,3692,8/10/2018,6/19/2019 12:00,110,KING STREET,503,TUEL ENTERPRISES INC,RESIDENTIAL: 1 & 2 FAMILY HOUSES,3,2
0101000020E610000000000000A78952C00000000025454440,409650,0101000020110F0000255E63D2F77C5FC1E9177BB2DCDC5241,40.5401916503906,-74.1508178710938,Staten Island,A1,ALT 1 Enlargement,520305269,5067636,A1,200,true,1479,5/24/2018,5/1/2019 12:00,146,DRIGGS STREET,503,RANDAZZO CONSTRUCTION GRO,RESIDENTIAL: 1 & 2 FAMILY HOUSES,2,1
0101000020E610000000000040A68B52C0000000E029454440,536500,0101000020110F00002A093D3B5C805FC1FEDA3625E2DC5241,40.540340423584,-74.1820220947266,Staten Island,NB,New Building,520247643,5166576,NB,201,false,3625,7/11/2018,6/29/2019 12:00,330,DETROIT AVENUE,503,ZAIM CONTRACTOR CORP,RESIDENTIAL: 1 & 2 FAMILY HOUSES,3,2
0101000020E610000000000040A68B52C0000000E029454440,29600,0101000020110F00002A093D3B5C805FC1FEDA3625E2DC5241,40.540340423584,-74.1820220947266,Staten Island,NB,New Building,520284406,5169174,NB,202,false,200,7/11/2018,6/29/2019 12:00,330GAR,DETROIT AVENUE,503,ZAIM CONTRACTOR CORP,UTILITY / MISCELLANEOUS,1,
0101000020E610000000000080A98B52C00000002030454440,453176,0101000020110F0000826179C061805FC14DAF5621E9DC5241,40.5405311584473,-74.1822204589844,Staten Island,NB,New Building,520247652,5166575,NB,203,false,3062,7/11/2018,6/29/2019 12:00,340,DETROIT AVENUE,503,ZAIM CONTRACTOR CORP,RESIDENTIAL: 1 & 2 FAMILY HOUSES,3,2
0101000020E6100000000000A04A8D52C0000000C030454440,242295,0101000020110F000060FAD74726835FC148BD26D4E9DC5241,40.5405502319336,-74.2076797485352,Staten Island,A1,ALT 1 Enlargement,520315043,5085091,A1,204,true,960,8/17/2018,8/4/2019 12:00,165,RAMAPO AVE,503,D.R. CONTRACTING,RESIDENTIAL: 1 & 2 FAMILY HOUSES,2,1
0101000020E6100000000000403C8D52C00000000038454440,41292,0101000020110F0000424CFEDC0D835FC1ECEC61EEF1DC5241,40.540771484375,-74.2068023681641,Staten Island,NB,New Building,520318086,5170439,NB,205,false,279,6/29/2018,6/29/2019 12:00,598GAR,FOSTER ROAD,503,A.E.H BUILDERS CORP,UTILITY / MISCELLANEOUS,1,0
0101000020E6100000000000403C8D52C00000000038454440,557072,0101000020110F0000424CFEDC0D835FC1ECEC61EEF1DC5241,40.540771484375,-74.2068023681641,Staten Island,NB,New Building,520328743,5170438,NB,206,false,3764,6/29/2018,12/9/2018 12:00,598,FOSTER ROAD,503,A.E.H BUILDERS CORP,RESIDENTIAL: 1 & 2 FAMILY HOUSES,3,2
0101000020E610000000000020418D52C0000000A03A454440,557072,0101000020110F0000C4D0D82416835FC1D62166DDF4DC5241,40.5408515930176,-74.2070999145508,Staten Island,NB,New Building,520318102,5085087,NB,207,false,3764,6/29/2018,12/9/2018 12:00,600,FOSTER ROAD,503,A.E.H BUILDERS CORP,RESIDENTIAL: 1 & 2 FAMILY HOUSES,3,2
0101000020E610000000000020418D52C0000000A03A454440,41292,0101000020110F0000C4D0D82416835FC1D62166DDF4DC5241,40.5408515930176,-74.2070999145508,Staten Island,NB,New Building,520318111,5141308,NB,208,false,279,6/29/2018,6/29/2019 12:00,600GAR,FOSTER ROAD,503,A.E.H BUILDERS CORP,UTILITY / MISCELLANEOUS,1,0
0101000020E6100000000000C08D8952C0000000A048454440,254000,0101000020110F0000A839A2EECC7C5FC1D0C8D58204DD5241,40.5412788391113,-74.1492767333984,Staten Island,A1,ALT 1 Enlargement,520288661,5067526,A1,209,true,1467,10/5/2017,10/5/2018 12:00,92,DRIGGS ST,503,CAPITAL TILE CORP,RESIDENTIAL: 1 & 2 FAMILY HOUSES,2,2
0101000020E610000000000040038E52C0000000404D454440,10074064,0101000020110F00003AF780E25F845FC198AD10AE09DD5241,40.5414199829102,-74.2189483642578,Staten Island,NB,New Building,500872978,5158758,NB,210,false,68068,1/25/2018,1/1/2019 12:00,644,BLOOMINGDALE ROAD,503,LEON D. DEMATTEIS CONSTRU,EDUCATIONAL,2,
0101000020E610000000000040848952C00000002056454440,666000,0101000020110F00000C10A3CBBC7C5FC106803E9913DD5241,40.541690826416,-74.1486968994141,Staten Island,NB,New Building,520311859,5170182,NB,211,false,4500,7/12/2018,5/18/2019 12:00,68,DRIGGS STREET,503,EARL LYNGSTAD INC,RESIDENTIAL: 1 & 2 FAMILY HOUSES,3,2
0101000020E6100000000000E06E8C52C0000000C058454440,458652,0101000020110F00004FE05D03B1815FC16E58458816DD5241,40.5417709350586,-74.1942672729492,Staten Island,NB,New Building,520276736,5817541,NB,212,false,3099,5/29/2018,6/15/2019 12:00,561,SHELDON AVENUE,503,TUEL ENTERPRISES INC,RESIDENTIAL: 1 & 2 FAMILY HOUSES,3,2
0101000020E6100000000000000A8C52C00000000059454440,224000,0101000020110F0000103EB4AA05815FC1C51ACCCF16DD5241,40.5417785644531,-74.1881103515625,Staten Island,A1,ALT 1 Enlargement,520314829,5081034,A1,213,true,1263,5/17/2018,2/27/2019 12:00,156,HEENAN AVENUE,503,J. SMITH CONSTRUCTION INC,RESIDENTIAL: 1 & 2 FAMILY HOUSES,3,1
0101000020E610000000000020888952C0000000405E454440,39072,0101000020110F0000EA16A660C37C5FC16587DAAD1CDD5241,40.5419387817383,-74.1489334106445,Staten Island,NB,New Building,520311868,5170183,NB,214,false,264,7/13/2018,7/12/2019 12:00,68GAR,DRIGGS STREET,503,EARL LYNGSTAD INC,UTILITY / MISCELLANEOUS,1,0
0101000020E6100000000000A0428E52C0000000E061454440,332260,0101000020110F0000DBB19988CB845FC10168FDBA20DD5241,40.542049407959,-74.2228164672852,Staten Island,NB,New Building,520188341,5159026,NB,215,false,2245,5/3/2018,4/28/2019 12:00,27,APRICOT COURT,503,BEYER CONSTRUCTION CORP,RESIDENTIAL: 1 & 2 FAMILY HOUSES,2,1
0101000020E6100000000000C0408E52C0000000E062454440,423428,0101000020110F000048A64559C8845FC189C218D921DD5241,40.5420799255371,-74.2227020263672,Staten Island,NB,New Building,520188305,5159025,NB,216,false,2861,5/3/2018,4/28/2019 12:00,23,APRICOT COURT,503,BEYER CONSTRUCTION CORP,RESIDENTIAL: 1 & 2 FAMILY HOUSES,2,1
0101000020E6100000000000203F8E52C0000000E063454440,423428,0101000020110F00001B7AA796C5845FC19D2534F722DD5241,40.5421104431152,-74.2226028442383,Staten Island,NB,New Building,520188314,5159024,NB,217,false,2861,5/3/2018,4/28/2019 12:00,19,APRICOT COURT,503,BEYER CONSTRUCTION CORP,RESIDENTIAL: 1 & 2 FAMILY HOUSES,3,2
0101000020E6100000000000203D8E52C0000000E064454440,423428,0101000020110F0000D27EF830C2845FC13C914F1524DD5241,40.5421409606934,-74.2224807739258,Staten Island,NB,New Building,520188289,5159023,NB,218,false,2861,5/3/2018,4/28/2019 12:00,15,APRICOT COURT,503,BEYER CONSTRUCTION CORP,RESIDENTIAL: 1 & 2 FAMILY HOUSES,3,2
0101000020E6100000000000403B8E52C0000000E065454440,423428,0101000020110F00003D73A401BF845FC16A056B3325DD5241,40.5421714782715,-74.2223663330078,Staten Island,NB,New Building,520188298,5159022,NB,219,false,2861,5/3/2018,4/28/2019 12:00,11,APRICOT COURT,503,BEYER CONSTRUCTION CORP,RESIDENTIAL: 1 & 2 FAMILY HOUSES,2,1
0101000020E610000000000040288C52C00000002067454440,520516,0101000020110F0000C5D6AA0C39815FC1A5620D9926DD5241,40.5422096252441,-74.1899566650391,Staten Island,NB,New Building,520260057,5165186,NB,220,false,3517,4/3/2018,3/30/2019 12:00,471,RENSSELAER AVE,503,CAVAGNARO CONTRACTING LLC,RESIDENTIAL: 1 & 2 FAMILY HOUSES,2,1
0101000020E610000000000040458E52C0000000C068454440,332260,0101000020110F0000AC5B0FFECF845FC1F922FA6928DD5241,40.5422592163086,-74.2229766845703,Staten Island,NB,New Building,520188332,5159021,NB,221,false,2245,5/3/2018,4/28/2019 12:00,29,APRICOT COURT,503,BEYER CONSTRUCTION CORP,RESIDENTIAL: 1 & 2 FAMILY HOUSES,2,1
0101000020E610000000000040428E52C0000000006E454440,413364,0101000020110F0000BFE288E5CA845FC1F2510B482EDD5241,40.5424194335938,-74.2227935791016,Staten Island,NB,New Building,520188270,5159020,NB,222,false,2793,5/3/2018,4/28/2019 12:00,20,APRICOT COURT,503,BEYER CONSTRUCTION CORP,RESIDENTIAL: 1 & 2 FAMILY HOUSES,3,2
0101000020E610000000000040408E52C0000000A06E454440,334776,0101000020110F000075E7D97FC7845FC146AADCFA2EDD5241,40.5424385070801,-74.2226715087891,Staten Island,NB,New Building,520188458,5159019,NB,223,false,2262,5/3/2018,4/28/2019 12:00,18,APRICOT COURT,503,BEYER CONSTRUCTION CORP,RESIDENTIAL: 1 & 2 FAMILY HOUSES,2,1
0101000020E6100000000000E03E8E52C0000000A06F454440,332260,0101000020110F0000B39AF129C5845FC1B971F81830DD5241,40.5424690246582,-74.2225875854492,Staten Island,NB,New Building,520188467,5159018,NB,224,false,2245,5/3/2018,4/28/2019 12:00,14,APRICOT COURT,503,BEYER CONSTRUCTION CORP,RESIDENTIAL: 1 & 2 FAMILY HOUSES,2,1
0101000020E6100000000000803D8E52C00000004070454440,306360,0101000020110F0000F04D09D4C2845FC1B9D2C9CB30DD5241,40.5424880981445,-74.2225036621094,Staten Island,NB,New Building,520188476,5159017,NB,225,false,2070,5/3/2018,4/28/2019 12:00,12,APRICOT COURT,503,BEYER CONSTRUCTION CORP,RESIDENTIAL: 1 & 2 FAMILY HOUSES,2,1
0101000020E6100000000000602F8952C0000000607E454440,502016,0101000020110F0000174871A02C7C5FC10410169540DD5241,40.5429191589355,-74.1435165405273,Staten Island,NB,New Building,520286244,5170444,NB,226,false,3392,4/5/2018,4/1/2019 12:00,340,CLEVELAND AVENUE,503,KDC OF STATEN ISLAND INC,RESIDENTIAL: 1 & 2 FAMILY HOUSES,3,1
0101000020E6100000000000002F8952C0000000E086454440,502016,0101000020110F0000F97860FD2B7C5FC157B707154ADD5241,40.5431785583496,-74.1434936523438,Staten Island,NB,New Building,520286235,5167093,NB,227,false,3392,4/5/2018,4/1/2019 12:00,334,CLEVELAND AVENUE,503,KDC OF STATEN ISLAND INC,RESIDENTIAL: 1 & 2 FAMILY HOUSES,3,1
0101000020E610000000000040678B52C0000000408A454440,285112,0101000020110F0000A71D3538F17F5FC1EE55A8DA4DDD5241,40.5432815551758,-74.1781768798828,Staten Island,A1,ALT 1 Enlargement,520264044,5080091,A1,228,true,1257,7/17/2018,10/19/2018 12:00,961,CARLTON BLVD.,503,SUPREME PRECISION CONSTRC,RESIDENTIAL: 1 & 2 FAMILY HOUSES,3,2
0101000020E610000000000060F28952C0000000808B454440,110000,0101000020110F00007EFC95DA777D5FC195374C404FDD5241,40.5433197021484,-74.1554183959961,Staten Island,A1,ALT 1 Enlargement,520308578,5067035,A1,229,true,372,8/10/2018,8/10/2019 12:00,129,SYCAMORE STREET,503,N/A,RESIDENTIAL: 1 & 2 FAMILY HOUSES,3,1
0101000020E610000000000040CB8952C0000000C092454440,39812,0101000020110F0000B5E86665357D5FC1915B9D5A57DD5241,40.5435409545898,-74.1530303955078,Staten Island,NB,New Building,520335879,5170368,NB,230,false,269,7/5/2018,7/5/2019 12:00,41GAR,RAMBLEWOOD AVENUE,503,PALERMO CONSTRUCTION CORP,UTILITY / MISCELLANEOUS,1,
0101000020E6100000000000C09D8B52C00000000094454440,92352,0101000020110F0000345D15CB4D805FC1FA9741C058DD5241,40.5435791015625,-74.1815032958984,Staten Island,NB,New Building,520300219,5163400,NB,231,false,624,4/24/2018,3/20/2019 12:00,226GAR,IONIA AVENUE,503,NICOLOSI BROS INC,UTILITY / MISCELLANEOUS,1,0
0101000020E6100000000000C09D8B52C00000000094454440,233055,0101000020110F0000345D15CB4D805FC1FA9741C058DD5241,40.5435791015625,-74.1815032958984,Staten Island,A1,ALT 1 Enlargement,520300200,5080653,A1,232,true,1259,4/24/2018,3/20/2019 12:00,226,IONIA AVENUE,503,NICOLOSI BROS INC,RESIDENTIAL: 1 & 2 FAMILY HOUSES,3,2
0101000020E6100000000000C0CB8952C00000000094454440,460132,0101000020110F000086A7D23E367D5FC1FA9741C058DD5241,40.5435791015625,-74.1530609130859,Staten Island,NB,New Building,520335851,5170369,NB,233,false,3109,7/5/2018,6/14/2019 12:00,43,RAMBLEWOOD AVENUE,503,PALERMO CONSTRUCTION CORP,RESIDENTIAL: 1 & 2 FAMILY HOUSES,3,2
0101000020E6100000000000C0CB8952C00000000094454440,39812,0101000020110F000086A7D23E367D5FC1FA9741C058DD5241,40.5435791015625,-74.1530609130859,Staten Island,NB,New Building,520335860,5170370,NB,234,false,269,7/5/2018,7/5/2019 12:00,43GAR,RAMBLEWOOD AVENUE,503,PALERMO CONSTRUCTION CORP,UTILITY / MISCELLANEOUS,1,
0101000020E6100000000000E0508952C00000000097454440,284975,0101000020110F00002239A487657C5FC1D8C5981A5CDD5241,40.5436706542969,-74.1455612182617,Staten Island,A1,ALT 1 Enlargement,520319469,5065953,A1,235,true,1005,7/25/2018,10/28/2018 12:00,79,TARLEE PLACE,503,CRAFT MASTER BUILDERS COR,RESIDENTIAL: 1 & 2 FAMILY HOUSES,3,1
0101000020E610000000000080C98952C0000000409A454440,460132,0101000020110F0000D5CC6D6C327D5FC14C8E77BC5FDD5241,40.5437698364258,-74.1529235839844,Staten Island,NB,New Building,520335888,5066910,NB,236,false,3109,7/5/2018,6/14/2019 12:00,41,RAMBLEWOOD AVENUE,503,PALERMO CONSTRUCTION CORP,RESIDENTIAL: 1 & 2 FAMILY HOUSES,3,2
0101000020E610000000000000F78D52C0000000C0A1454440,861804,0101000020110F00001A34B1134B845FC196A1531E68DD5241,40.5439987182617,-74.2182006835938,Staten Island,NB,New Building,520272268,5169044,NB,237,false,5823,5/3/2018,4/28/2019 12:00,151,RADIGAN AVENUE,503,BEYER CONSTRUCTION CORP,RESIDENTIAL: 1 & 2 FAMILY HOUSES,2,2
0101000020E6100000000000C02B8E52C000000000A7454440,533244,0101000020110F0000C65798ADA4845FC105CD6EFC6DDD5241,40.5441589355469,-74.2214202880859,Staten Island,NB,New Building,520008964,5170616,NB,238,false,3603,6/27/2018,6/7/2019 12:00,115,BERKSHIRE LANE,503,RONIQUE WOODWORKING INC,RESIDENTIAL: 1 & 2 FAMILY HOUSES,2,2
0101000020E6100000000000A0298E52C000000000A8454440,533244,0101000020110F0000C86C8E11A1845FC114768C1A6FDD5241,40.544189453125,-74.2212905883789,Staten Island,NB,New Building,520009213,5170617,NB,239,false,3603,6/27/2018,6/7/2019 12:00,109,BERKSHIRE LANE,503,RONIQUE WOODWORKING INC,RESIDENTIAL: 1 & 2 FAMILY HOUSES,2,2
0101000020E6100000000000A0278E52C0000000A0A8454440,533244,0101000020110F00007F71DFAB9D845FC116045FCD6FDD5241,40.5442085266113,-74.2211685180664,Staten Island,NB,New Building,520009204,5170618,NB,240,false,3603,6/29/2018,6/7/2019 12:00,105,BERKSHIRE LANE,503,RONIQUE WOODWORKING INC,RESIDENTIAL: 1 & 2 FAMILY HOUSES,2,2
0101000020E6100000000000802E8E52C000000000AB454440,357568,0101000020110F00004CF16859A9845FC189A4E57472DD5241,40.5442810058594,-74.2215881347656,Staten Island,NB,New Building,520008955,5170615,NB,241,false,2416,6/27/2018,6/7/2019 12:00,119,BERKSHIRE LANE,503,RONIQUE WOODWORKING INC,RESIDENTIAL: 1 & 2 FAMILY HOUSES,2,1
0101000020E610000000000060218E52C000000040AB454440,533244,0101000020110F00003AA01C0E93845FC18B166DBC72DD5241,40.5442886352539,-74.2207870483398,Staten Island,NB,New Building,520009179,5170619,NB,242,false,3603,6/28/2018,6/7/2019 12:00,89,BERKSHIRE LANE,503,RONIQUE WOODWORKING INC,RESIDENTIAL: 1 & 2 FAMILY HOUSES,2,2
0101000020E6100000000000E0728B52C000000040AF454440,486476,0101000020110F000041323EF704805FC1507FE43477DD5241,40.5444107055664,-74.1788864135742,Staten Island,NB,New Building,520322357,5170172,NB,243,false,3287,3/19/2018,3/19/2019 12:00,181,DETROIT AVENUE,503,LIBERTY ESTATES CORP,RESIDENTIAL: 1 & 2 FAMILY HOUSES,3,2
0101000020E6100000000000E0728B52C000000040AF454440,44400,0101000020110F000041323EF704805FC1507FE43477DD5241,40.5444107055664,-74.1788864135742,Staten Island,NB,New Building,520322366,5170173,NB,244,false,300,3/19/2018,3/19/2019 12:00,181GAR,DETROIT AVENUE,503,LIBERTY ESTATES CORP,UTILITY / MISCELLANEOUS,1,
0101000020E610000000000040728B52C0000000E0B0454440,486476,0101000020110F0000BA8377E703805FC1EC28D50579DD5241,40.5444602966309,-74.1788482666016,Staten Island,NB,New Building,520318932,5170170,NB,245,false,3287,3/19/2018,3/19/2019 12:00,177,DETROIT AVENUE,503,LIBERTY ESTATES CORP,RESIDENTIAL: 1 & 2 FAMILY HOUSES,3,2
0101000020E610000000000040728B52C0000000E0B0454440,44400,0101000020110F0000BA8377E703805FC1EC28D50579DD5241,40.5444602966309,-74.1788482666016,Staten Island,NB,New Building,520318941,5170171,NB,246,false,300,3/19/2018,3/19/2019 12:00,177GAR,DETROIT AVENUE,503,LIBERTY ESTATES CORP,UTILITY / MISCELLANEOUS,1,
0101000020E6100000000000002D8E52C000000080B1454440,551892,0101000020110F0000D4B425CDA6845FC14CE6A7B879DD5241,40.5444793701172,-74.2214965820312,Staten Island,NB,New Building,520009099,5158592,NB,247,false,3729,6/27/2018,6/7/2019 12:00,108,BERKSHIRE LANE,503,RONIQUE WOODWORKING INC,RESIDENTIAL: 1 & 2 FAMILY HOUSES,2,2
0101000020E6100000000000202A8E52C0000000E0B2454440,565360,0101000020110F00009B2BFAEAA1845FC1502C11427BDD5241,40.5445213317871,-74.221321105957,Staten Island,NB,New Building,520008928,5158591,NB,248,false,3820,6/27/2018,6/7/2019 12:00,102,BERKSHIRE LANE,503,RONIQUE WOODWORKING INC,RESIDENTIAL: 1 & 2 FAMILY HOUSES,2,2
0101000020E6100000000000801C8E52C0000000E0B2454440,357568,0101000020110F0000B81B42C68A845FC1502C11427BDD5241,40.5445213317871,-74.2204895019531,Staten Island,NB,New Building,520008982,5170620,NB,249,false,2416,6/28/2018,6/7/2019 12:00,75,BERKSHIRE LANE,503,RONIQUE WOODWORKING INC,RESIDENTIAL: 1 & 2 FAMILY HOUSES,2,1
0101000020E6100000000000E0278E52C0000000E0B3454440,565360,0101000020110F0000E85095189E845FC1D33A2F607CDD5241,40.5445518493652,-74.2211837768555,Staten Island,NB,New Building,520009044,5170622,NB,250,false,3820,6/27/2018,6/7/2019 12:00,96,BERKSHIRE LANE,503,RONIQUE WOODWORKING INC,RESIDENTIAL: 1 & 2 FAMILY HOUSES,2,2
0101000020E610000000000020208E52C000000020B7454440,565360,0101000020110F00002C438FEE90845FC10725110280DD5241,40.5446510314941,-74.2207107543945,Staten Island,NB,New Building,520008991,5158589,NB,251,false,3820,6/27/2018,6/7/2019 12:00,78,BERKSHIRE LANE,503,RONIQUE WOODWORKING INC,RESIDENTIAL: 1 & 2 FAMILY HOUSES,2,2
0101000020E6100000000000602D8E52C000000060B8454440,533244,0101000020110F0000F2833670A7845FC1E5E5B66781DD5241,40.5446891784668,-74.2215194702148,Staten Island,NB,New Building,520009080,5170623,NB,252,false,3603,6/27/2018,6/7/2019 12:00,35,WILTSHIRE LANE,503,RONIQUE WOODWORKING INC,RESIDENTIAL: 1 & 2 FAMILY HOUSES,2,2
0101000020E6100000000000002E8E52C0000000A0BB454440,546564,0101000020110F00007932FD7FA8845FC1054D990985DD5241,40.5447883605957,-74.2215576171875,Staten Island,NB,New Building,520009071,5158593,NB,253,false,3693,6/27/2018,6/7/2019 12:00,31,WILTSHIRE LANE,503,RONIQUE WOODWORKING INC,RESIDENTIAL: 1 & 2 FAMILY HOUSES,2,2
0101000020E610000000000000248E52C0000000A0BE454440,486180,0101000020110F00000A4A928397845FC17B72F46388DD5241,40.5448799133301,-74.220947265625,Staten Island,NB,New Building,520008884,5158587,NB,254,false,3285,6/27/2018,6/7/2019 12:00,64,BERKSHIRE LANE,503,RONIQUE WOODWORKING INC,RESIDENTIAL: 1 & 2 FAMILY HOUSES,2,1
0101000020E6100000000000C02E8E52C000000000BF454440,546564,0101000020110F0000B4D01EC6A9845FC194DC3FCF88DD5241,40.5448913574219,-74.2216033935547,Staten Island,NB,New Building,520009062,5158594,NB,255,false,3693,6/27/2018,6/7/2019 12:00,27,WILTSHIRE LANE,27,RONIQUE WOODWORKING INC,RESIDENTIAL: 1 & 2 FAMILY HOUSES,2,2
0101000020E610000000000080248E52C0000000E0C0454440,486180,0101000020110F0000DD08FE5C98845FC10901B9E78ADD5241,40.5449485778809,-74.2209777832031,Staten Island,NB,New Building,520008875,5158586,NB,256,false,3285,6/27/2018,6/7/2019 12:00,60,BERKSHIRE LANE,503,RONIQUE WOODWORKING INC,RESIDENTIAL: 1 & 2 FAMILY HOUSES,2,1
0101000020E6100000000000202F8E52C000000040C2454440,533244,0101000020110F0000D29F2F69AA845FC1AAFB22718CDD5241,40.5449905395508,-74.2216262817383,Staten Island,NB,New Building,520009053,5170420,NB,257,false,3603,6/27/2018,6/7/2019 12:00,23,WILTSHIRE LANE,503,RONIQUE WOODWORKING INC,RESIDENTIAL: 1 & 2 FAMILY HOUSES,2,2
0101000020E610000000000060238C52C000000080C2454440,697376,0101000020110F00004152D0C430815FC1539FAAB88CDD5241,40.5449981689453,-74.1896591186523,Staten Island,NB,New Building,520296162,5169573,NB,258,false,4712,10/6/2017,10/6/2018 12:00,32,HEENAN AVENUE,503,CAPITAL TILE CORP,RESIDENTIAL: 1 & 2 FAMILY HOUSES,3,2
0101000020E6100000000000E0248E52C000000080C3454440,486180,0101000020110F0000FBD70E0099845FC15833C9D68DDD5241,40.5450286865234,-74.2210006713867,Staten Island,NB,New Building,520008900,5158585,NB,259,false,3285,6/27/2018,6/7/2019 12:00,56,BERKSHIRE LANE,503,RONIQUE WOODWORKING INC,RESIDENTIAL: 1 & 2 FAMILY HOUSES,2,1
0101000020E6100000000000E02F8E52C000000020C5454440,533244,0101000020110F00000E3E51AFAB845FC116F6BAA78FDD5241,40.5450782775879,-74.2216720581055,Staten Island,NB,New Building,520116785,5170624,NB,260,false,3603,6/27/2018,6/7/2019 12:00,19,WILTSHIRE LANE,,RONIQUE WOODWORKING INC,RESIDENTIAL: 1 & 2 FAMILY HOUSES,2,2
0101000020E610000000000060258E52C000000080C5454440,486180,0101000020110F0000CC967AD999845FC1FE74061390DD5241,40.5450897216797,-74.2210311889648,Staten Island,NB,New Building,520008866,5158584,NB,261,false,3285,6/27/2018,6/7/2019 12:00,52,BERKSHIRE LANE,503,RONIQUE WOODWORKING INC,RESIDENTIAL: 1 & 2 FAMILY HOUSES,2,1
0101000020E610000000000000308E52C000000080C8454440,546564,0101000020110F0000C12DACE5AB845FC18F97626D93DD5241,40.5451812744141,-74.2216796875,Staten Island,NB,New Building,520008937,5170625,NB,262,false,3693,6/27/2018,6/7/2019 12:00,15,WILTSHIRE LANE,503,RONIQUE WOODWORKING INC,RESIDENTIAL: 1 & 2 FAMILY HOUSES,2,2
0101000020E6100000000000A02F8E52C000000000CF454440,426536,0101000020110F0000A45E9B42AB845FC18D3F2BB19ADD5241,40.5453796386719,-74.2216567993164,Staten Island,NB,New Building,520008946,5158595,NB,263,false,2882,6/28/2018,6/7/2019 12:00,11,WILTSHIRE LANE,503,RONIQUE WOODWORKING INC,RESIDENTIAL: 1 & 2 FAMILY HOUSES,3,2
0101000020E6100000000000A02F8E52C000000000CF454440,32560,0101000020110F0000A45E9B42AB845FC18D3F2BB19ADD5241,40.5453796386719,-74.2216567993164,Staten Island,NB,New Building,520116794,5158595,NB,264,false,220,6/27/2018,6/7/2019 12:00,11,WILTSHIRE LANE,503,RONIQUE WOODWORKING INC,UTILITY / MISCELLANEOUS,1,
0101000020E610000000000080278E52C0000000A0D0454440,486180,0101000020110F0000CA8184759D845FC1F7A11D829CDD5241,40.5454292297363,-74.2211608886719,Staten Island,NB,New Building,520008820,5170629,NB,265,false,3285,6/27/2018,6/7/2019 12:00,32,BERKSHIRE LANE,503,RONIQUE WOODWORKING INC,RESIDENTIAL: 1 & 2 FAMILY HOUSES,2,1
0101000020E610000000000000288E52C0000000A0D2454440,486180,0101000020110F00009D40F04E9E845FC1E2C35BBE9EDD5241,40.5454902648926,-74.22119140625,Staten Island,NB,New Building,520008839,5158577,NB,266,false,3285,6/27/2018,6/7/2019 12:00,28,BERKSHIRE LANE,503,RONIQUE WOODWORKING INC,RESIDENTIAL: 1 & 2 FAMILY HOUSES,2,1
0101000020E610000000000040288E52C0000000E0D4454440,486180,0101000020110F00000620A6BB9E845FC1E8D22142A1DD5241,40.5455589294434,-74.2212066650391,Staten Island,NB,New Building,520008795,5158576,NB,267,false,3285,6/27/2018,6/7/2019 12:00,24,BERKSHIRE LANE,503,RONIQUE WOODWORKING INC,RESIDENTIAL: 1 & 2 FAMILY HOUSES,2,1
0101000020E610000000000020378B52C000000080DA454440,476264,0101000020110F0000159F72799F7F5FC1B0B5918BA7DD5241,40.5457305908203,-74.1752395629883,Staten Island,NB,New Building,520278663,5074976,NB,268,false,3218,6/15/2018,10/26/2018 12:00,665,ANNADALE ROAD,503,MONELLO ENTERPRISES INC,RESIDENTIAL: 1 & 2 FAMILY HOUSES,2,1
0101000020E6100000000000803B8B52C0000000C0DE454440,476264,0101000020110F0000C464E1E7A67F5FC1384D974BACDD5241,40.5458602905273,-74.1755065917969,Staten Island,NB,New Building,520278654,5169543,NB,269,false,3218,6/15/2018,10/26/2018 12:00,663,ANNADALE ROAD,503,MONELLO ENTERPRISES INC,RESIDENTIAL: 1 & 2 FAMILY HOUSES,2,1
0101000020E6100000000000C0288E52C000000060E3454440,426536,0101000020110F0000D8DE11959F845FC1B55DE976B1DD5241,40.5460014343262,-74.2212371826172,Staten Island,NB,New Building,520008731,5158573,NB,270,false,2882,6/27/2018,6/7/2019 12:00,8,BERKSHIRE LANE,503,RONIQUE WOODWORKING INC,RESIDENTIAL: 1 & 2 FAMILY HOUSES,3,2
0101000020E610000000000060E38A52C00000006007464440,453176,0101000020110F000079447337117F5FC1AFB472B3D9DD5241,40.5471000671387,-74.1701278686523,Staten Island,NB,New Building,520211422,5165170,NB,271,false,3062,6/26/2018,6/26/2019 12:00,86,SERRELL AVENUE,503,NELLO DEVELOPMENT CORP,RESIDENTIAL: 1 & 2 FAMILY HOUSES,3,2
0101000020E6100000000000C01E8C52C0000000400D464440,507048,0101000020110F000029ADABE928815FC1EC557444E0DD5241,40.5472793579102,-74.1893768310547,Staten Island,NB,New Building,520209051,5166787,NB,272,false,3426,9/12/2017,9/7/2018 12:00,14,CANTON AVENUE,503,"FIORIBELLO HOMES, LLC",RESIDENTIAL: 1 & 2 FAMILY HOUSES,2,1
0101000020E6100000000000C01E8C52C0000000400D464440,35816,0101000020110F000029ADABE928815FC1EC557444E0DD5241,40.5472793579102,-74.1893768310547,Staten Island,NB,New Building,520290060,5166787,NB,273,false,242,9/12/2017,9/7/2018 12:00,14,CANTON AVENUE,503,"FIORIBELLO HOMES, LLC",UTILITY / MISCELLANEOUS,1,
0101000020E610000000000040D48B52C0000000C014464440,263000,0101000020110F0000C09CF55DAA805FC157326DA6E8DD5241,40.5475082397461,-74.1848297119141,Staten Island,A1,ALT 1 Enlargement,520310244,5080232,A1,274,true,1307,11/21/2017,9/7/2018 12:00,140,SINCLAIR AVE,503,"FIORIBELLO HOMES, LLC",RESIDENTIAL: 1 & 2 FAMILY HOUSES,2,2
0101000020E6100000000000E0368C52C0000000602D464440,546564,0101000020110F00004C643AE451815FC12E7E6B2C04DE5241,40.5482597351074,-74.1908493041992,Staten Island,NB,New Building,520304787,5170111,NB,275,false,3693,2/23/2018,9/10/2018 12:00,61,CANTON AVENUE,503,FJN DEVELOPEMENT CORP,RESIDENTIAL: 1 & 2 FAMILY HOUSES,3,2
0101000020E6100000000000E0368C52C0000000602D464440,36852,0101000020110F00004C643AE451815FC12E7E6B2C04DE5241,40.5482597351074,-74.1908493041992,Staten Island,NB,New Building,520304812,5170112,NB,276,false,249,2/23/2018,2/23/2019 12:00,61GARAGE,CANTON AVENUE,503,FJN DEVELOPEMENT CORP,UTILITY / MISCELLANEOUS,1,
0101000020E610000000000040388C52C0000000C02E464440,546564,0101000020110F00000EB1223A54815FC18573DAB505DE5241,40.5483016967773,-74.1909332275391,Staten Island,NB,New Building,520304778,5170113,NB,277,false,3693,2/23/2018,9/10/2018 12:00,65,CANTON AVENUE,503,FJN DEVELOPEMENT CORP,RESIDENTIAL: 1 & 2 FAMILY HOUSES,3,2
0101000020E610000000000040388C52C0000000C02E464440,36852,0101000020110F00000EB1223A54815FC18573DAB505DE5241,40.5483016967773,-74.1909332275391,Staten Island,NB,New Building,520304803,5170114,NB,278,false,249,3/14/2018,9/10/2018 12:00,65GARAGE,CANTON AVENUE,503,FJN DEVELOPEMENT CORP,UTILITY / MISCELLANEOUS,1,
